$GPRMC,214714.00,V,,,,,,,311014,,,N*7E
$GPVTG,,,,,,,,,N*30
$GPGGA,214714.00,,,,,0,00,99.99,,,,,,*63
$GPGSA,A,1,,,,,,,,,,,,,99.99,99.99,99.99*30
$GPGSV,2,1,08,02,,,30,06,,,23,12,,,27,13,,,10*71
$GPGSV,2,2,08,14,,,13,15,,,18,24,,,24,25,,,25*7B
$GPGLL,,,,,214714.00,V,N*4F
$GPRMC,214715.00,V,,,,,,,311014,,,N*7F
$GPVTG,,,,,,,,,N*30
$GPGGA,214715.00,,,,,0,00,99.99,,,,,,*62
$GPGSA,A,1,,,,,,,,,,,,,99.99,99.99,99.99*30
$GPGSV,2,1,07,02,,,29,06,,,22,12,,,26,14,,,09*79
$GPGSV,2,2,07,15,,,16,24,,,23,25,,,25*7A
$GPGLL,,,,,214715.00,V,N*4E
$GPRMC,214716.00,V,,,,,,,311014,,,N*7C
$GPVTG,,,,,,,,,N*30
$GPGGA,214716.00,,,,,0,00,99.99,,,,,,*61
$GPGSA,A,1,,,,,,,,,,,,,99.99,99.99,99.99*30
$GPGSV,2,1,07,02,,,27,06,,,19,12,,,25,14,,,08*7D
$GPGSV,2,2,07,15,,,11,24,,,21,25,,,23*79
$GPGLL,,,,,214716.00,V,N*4D
$GPRMC,214717.00,V,,,,,,,311014,,,N*7D
$GPVTG,,,,,,,,,N*30
$GPGGA,214717.00,,,,,0,00,99.99,,,,,,*60
$GPGSA,A,1,,,,,,,,,,,,,99.99,99.99,99.99*30
$GPGSV,2,1,06,02,,,31,06,,,17,12,,,26,15,,,08*77
$GPGSV,2,2,06,24,,,20,25,,,22*7C
$GPGLL,,,,,214717.00,V,N*4C
$GPRMC,214718.00,V,,,,,,,311014,,,N*72
$GPVTG,,,,,,,,,N*30
$GPGGA,214718.00,,,,,0,00,99.99,,,,,,*6F
$GPGSA,A,1,,,,,,,,,,,,,99.99,99.99,99.99*30
$GPGSV,2,1,07,02,,,31,06,,,11,12,,,28,15,,,08*7E
$GPGSV,2,2,07,18,,,25,24,,,22,25,,,23*70
$GPGLL,,,,,214718.00,V,N*43
$GPRMC,214719.00,V,,,,,,,311014,,,N*73
$GPVTG,,,,,,,,,N*30
$GPGGA,214719.00,,,,,0,00,99.99,,,,,,*6E
$GPGSA,A,1,,,,,,,,,,,,,99.99,99.99,99.99*30
$GPGSV,2,1,06,02,,,31,06,,,10,12,,,28,15,,,08*7E
$GPGSV,2,2,06,24,,,29,25,,,22*75
$GPGLL,,,,,214719.00,V,N*42
$GPRMC,214720.00,V,,,,,,,311014,,,N*79
$GPVTG,,,,,,,,,N*30
$GPGGA,214720.00,,,,,0,00,99.99,,,,,,*64
$GPGSA,A,1,,,,,,,,,,,,,99.99,99.99,99.99*30
$GPGSV,2,1,06,02,,,30,06,,,09,12,,,28,15,,,08*77
$GPGSV,2,2,06,24,,,28,25,,,22*74
$GPGLL,,,,,214720.00,V,N*48
$GPRMC,214721.00,V,,,,,,,311014,,,N*78
$GPVTG,,,,,,,,,N*30
$GPGGA,214721.00,,,,,0,00,99.99,,,,,,*65
$GPGSA,A,1,,,,,,,,,,,,,99.99,99.99,99.99*30
$GPGSV,2,1,05,02,,,30,06,,,08,12,,,28,24,,,27*7A
$GPGSV,2,2,05,25,,,23*7A
$GPGLL,,,,,214721.00,V,N*49
$GPRMC,214722.00,V,,,,,,,311014,,,N*7B
$GPVTG,,,,,,,,,N*30
$GPGGA,214722.00,,,,,0,00,99.99,,,,,,*66
$GPGSA,A,1,,,,,,,,,,,,,99.99,99.99,99.99*30
$GPGSV,2,1,05,02,,,30,12,,,28,19,,,25,24,,,27*7B
$GPGSV,2,2,05,25,,,23*7A
$GPGLL,,,,,214722.00,V,N*4A
$GPRMC,214723.00,V,,,,,,,311014,,,N*7A
$GPVTG,,,,,,,,,N*30
$GPGGA,214723.00,,,,,0,00,99.99,,,,,,*67
$GPGSA,A,1,,,,,,,,,,,,,99.99,99.99,99.99*30
$GPGSV,1,1,04,02,,,30,12,,,29,24,,,28,25,,,23*7E
$GPGLL,,,,,214723.00,V,N*4B
$GPRMC,214724.00,V,,,,,,,311014,,,N*7D
$GPVTG,,,,,,,,,N*30
$GPGGA,214724.00,,,,,0,00,99.99,,,,,,*60
$GPGSA,A,1,,,,,,,,,,,,,99.99,99.99,99.99*30
$GPGSV,1,1,04,02,,,31,12,,,29,24,,,28,25,,,23*7F
$GPGLL,,,,,214724.00,V,N*4C
$GPRMC,214725.00,V,,,,,,,311014,,,N*7C
$GPVTG,,,,,,,,,N*30
$GPGGA,214725.00,,,,,0,00,99.99,,,,,,*61
$GPGSA,A,1,,,,,,,,,,,,,99.99,99.99,99.99*30
$GPGSV,1,1,04,02,,,31,12,,,30,24,,,28,25,,,24*70
$GPGLL,,,,,214725.00,V,N*4D
$GPRMC,214726.00,V,,,,,,,311014,,,N*7F
$GPVTG,,,,,,,,,N*30
$GPGGA,214726.00,,,,,0,00,99.99,,,,,,*62
$GPGSA,A,1,,,,,,,,,,,,,99.99,99.99,99.99*30
$GPGSV,1,1,04,02,,,31,12,,,30,24,,,28,25,,,25*71
$GPGLL,,,,,214726.00,V,N*4E
$GPRMC,214727.00,V,,,,,,,311014,,,N*7E
$GPVTG,,,,,,,,,N*30
$GPGGA,214727.00,,,,,0,00,99.99,,,,,,*63
$GPGSA,A,1,,,,,,,,,,,,,99.99,99.99,99.99*30
$GPGSV,1,1,04,02,,,31,12,,,30,24,,,27,25,,,24*7F
$GPGLL,,,,,214727.00,V,N*4F
$GPRMC,214728.00,V,,,,,,,311014,,,N*71
$GPVTG,,,,,,,,,N*30
$GPGGA,214728.00,,,,,0,00,99.99,,,,,,*6C
$GPGSA,A,1,,,,,,,,,,,,,99.99,99.99,99.99*30
$GPGSV,2,1,05,02,,,32,12,,,30,21,,,21,24,,,27*7F
$GPGSV,2,2,05,25,,,24*7D
$GPGLL,,,,,214728.00,V,N*40
$GPRMC,214729.00,V,,,,,,,311014,,,N*70
$GPVTG,,,,,,,,,N*30
$GPGGA,214729.00,,,,,0,00,99.99,,,,,,*6D
$GPGSA,A,1,,,,,,,,,,,,,99.99,99.99,99.99*30
$GPGSV,1,1,04,02,,,32,12,,,30,24,,,28,25,,,23*74
$GPGLL,,,,,214729.00,V,N*41
$GPRMC,214730.00,V,,,,,,,311014,,,N*78
$GPVTG,,,,,,,,,N*30
$GPGGA,214730.00,,,,,0,00,99.99,,,,,,*65
$GPGSA,A,1,,,,,,,,,,,,,99.99,99.99,99.99*30
$GPGSV,1,1,04,02,,,32,12,,,29,24,,,27,25,,,23*73
$GPGLL,,,,,214730.00,V,N*49
$GPRMC,214731.00,V,,,,,,,311014,,,N*79
$GPVTG,,,,,,,,,N*30
$GPGGA,214731.00,,,,,0,00,99.99,,,,,,*64
$GPGSA,A,1,,,,,,,,,,,,,99.99,99.99,99.99*30
$GPGSV,2,1,05,02,,,32,12,,,29,22,,,20,24,,,27*75
$GPGSV,2,2,05,25,,,25*7C
$GPGLL,,,,,214731.00,V,N*48
$GPRMC,214732.00,V,,,,,,,311014,,,N*7A
$GPVTG,,,,,,,,,N*30
$GPGGA,214732.00,,,,,0,00,99.99,,,,,,*67
$GPGSA,A,1,,,,,,,,,,,,,99.99,99.99,99.99*30
$GPGSV,1,1,04,02,,,31,12,,,29,24,,,26,25,,,25*77
$GPGLL,,,,,214732.00,V,N*4B
$GPRMC,214733.00,V,,,,,,,311014,,,N*7B
$GPVTG,,,,,,,,,N*30
$GPGGA,214733.00,,,,,0,00,99.99,,,,,,*66
$GPGSA,A,1,,,,,,,,,,,,,99.99,99.99,99.99*30
$GPGSV,1,1,04,02,,,32,12,,,29,24,,,25,25,,,25*77
$GPGLL,,,,,214733.00,V,N*4A
$GPRMC,214734.00,V,,,,,,,311014,,,N*7C
$GPVTG,,,,,,,,,N*30
$GPGGA,214734.00,,,,,0,00,99.99,,,,,,*61
$GPGSA,A,1,,,,,,,,,,,,,99.99,99.99,99.99*30
$GPGSV,1,1,04,02,,,32,12,,,29,24,,,25,25,,,25*77
$GPGLL,,,,,214734.00,V,N*4D
$GPRMC,214735.00,V,,,,,,,311014,,,N*7D
$GPVTG,,,,,,,,,N*30
$GPGGA,214735.00,,,,,0,00,99.99,,,,,,*60
$GPGSA,A,1,,,,,,,,,,,,,99.99,99.99,99.99*30
$GPGSV,1,1,04,02,,,32,12,,,28,24,,,25,25,,,25*76
$GPGLL,,,,,214735.00,V,N*4C
$GPRMC,214736.00,V,,,,,,,311014,,,N*7E
$GPVTG,,,,,,,,,N*30
$GPGGA,214736.00,,,,,0,00,99.99,,,,,,*63
$GPGSA,A,1,,,,,,,,,,,,,99.99,99.99,99.99*30
$GPGSV,1,1,04,02,,,32,12,,,28,24,,,26,25,,,25*75
$GPGLL,,,,,214736.00,V,N*4F
$GPRMC,214737.00,V,,,,,,,311014,,,N*7F
$GPVTG,,,,,,,,,N*30
$GPGGA,214737.00,,,,,0,00,99.99,,,,,,*62
$GPGSA,A,1,,,,,,,,,,,,,99.99,99.99,99.99*30
$GPGSV,1,1,04,02,,,31,12,,,28,24,,,27,25,,,25*77
$GPGLL,,,,,214737.00,V,N*4E
$GPRMC,214738.00,V,,,,,,,311014,,,N*70
$GPVTG,,,,,,,,,N*30
$GPGGA,214738.00,,,,,0,00,99.99,,,,,,*6D
$GPGSA,A,1,,,,,,,,,,,,,99.99,99.99,99.99*30
$GPGSV,1,1,04,02,,,32,12,,,28,24,,,26,25,,,25*75
$GPGLL,,,,,214738.00,V,N*41
$GPRMC,214739.00,V,,,,,,,311014,,,N*71
$GPVTG,,,,,,,,,N*30
$GPGGA,214739.00,,,,,0,00,99.99,,,,,,*6C
$GPGSA,A,1,,,,,,,,,,,,,99.99,99.99,99.99*30
$GPGSV,1,1,04,02,,,32,12,,,27,24,,,26,25,,,26*79
$GPGLL,,,,,214739.00,V,N*40
$GPRMC,214740.00,V,,,,,,,311014,,,N*7F
$GPVTG,,,,,,,,,N*30
$GPGGA,214740.00,,,,,0,00,99.99,,,,,,*62
$GPGSA,A,1,,,,,,,,,,,,,99.99,99.99,99.99*30
$GPGSV,1,1,04,02,,,32,12,,,28,24,,,26,25,,,25*75
$GPGLL,,,,,214740.00,V,N*4E
$GPRMC,214741.00,V,,,,,,,311014,,,N*7E
$GPVTG,,,,,,,,,N*30
$GPGGA,214741.00,,,,,0,00,99.99,,,,,,*63
$GPGSA,A,1,,,,,,,,,,,,,99.99,99.99,99.99*30
$GPGSV,2,1,05,02,,,32,12,,,29,24,,,25,25,,,25*75
$GPGSV,2,2,05,26,,,19*70
$GPGLL,,,,,214741.00,V,N*4F
$GPRMC,214742.00,V,,,,,,,311014,,,N*7D
$GPVTG,,,,,,,,,N*30
$GPGGA,214742.00,,,,,0,00,99.99,,,,,,*60
$GPGSA,A,1,,,,,,,,,,,,,99.99,99.99,99.99*30
$GPGSV,1,1,04,02,,,32,12,,,29,24,,,25,25,,,25*77
$GPGLL,,,,,214742.00,V,N*4C
$GPRMC,214743.00,V,,,,,,,311014,,,N*7C
$GPVTG,,,,,,,,,N*30
$GPGGA,214743.00,,,,,0,00,99.99,,,,,,*61
$GPGSA,A,1,,,,,,,,,,,,,99.99,99.99,99.99*30
$GPGSV,1,1,04,02,,,32,12,,,29,24,,,24,25,,,25*76
$GPGLL,,,,,214743.00,V,N*4D
$GPRMC,214744.00,V,,,,,,,311014,,,N*7B
$GPVTG,,,,,,,,,N*30
$GPGGA,214744.00,,,,,0,00,99.99,,,,,,*66
$GPGSA,A,1,,,,,,,,,,,,,99.99,99.99,99.99*30
$GPGSV,2,1,05,02,,,32,12,,,29,24,,,25,25,,,25*75
$GPGSV,2,2,05,27,,,28*73
$GPGLL,,,,,214744.00,V,N*4A
$GPRMC,214745.00,V,,,,,,,311014,,,N*7A
$GPVTG,,,,,,,,,N*30
$GPGGA,214745.00,,,,,0,00,99.99,,,,,,*67
$GPGSA,A,1,,,,,,,,,,,,,99.99,99.99,99.99*30
$GPGSV,1,1,04,02,,,32,12,,,29,24,,,26,25,,,25*74
$GPGLL,,,,,214745.00,V,N*4B
$GPRMC,214746.00,V,,,,,,,311014,,,N*79
$GPVTG,,,,,,,,,N*30
$GPGGA,214746.00,,,,,0,00,99.99,,,,,,*64
$GPGSA,A,1,,,,,,,,,,,,,99.99,99.99,99.99*30
$GPGSV,1,1,04,02,,,32,12,,,29,24,,,26,25,,,26*77
$GPGLL,,,,,214746.00,V,N*48
$GPRMC,214747.00,V,,,,,,,311014,,,N*78
$GPVTG,,,,,,,,,N*30
$GPGGA,214747.00,,,,,0,00,99.99,,,,,,*65
$GPGSA,A,1,,,,,,,,,,,,,99.99,99.99,99.99*30
$GPGSV,1,1,04,02,,,32,12,,,29,24,,,26,25,,,27*76
$GPGLL,,,,,214747.00,V,N*49
$GPRMC,214748.00,V,,,,,,,311014,,,N*77
$GPVTG,,,,,,,,,N*30
$GPGGA,214748.00,,,,,0,00,99.99,,,,,,*6A
$GPGSA,A,1,,,,,,,,,,,,,99.99,99.99,99.99*30
$GPGSV,1,1,04,02,,,32,12,,,29,24,,,26,25,,,28*79
$GPGLL,,,,,214748.00,V,N*46
$GPRMC,214749.00,V,,,,,,,311014,,,N*76
$GPVTG,,,,,,,,,N*30
$GPGGA,214749.00,,,,,0,00,99.99,,,,,,*6B
$GPGSA,A,1,,,,,,,,,,,,,99.99,99.99,99.99*30
$GPGSV,1,1,04,02,,,32,12,,,29,24,,,27,25,,,29*79
$GPGLL,,,,,214749.00,V,N*47
$GPRMC,214750.00,V,,,,,,,311014,,,N*7E
$GPVTG,,,,,,,,,N*30
$GPGGA,214750.00,,,,,0,00,99.99,,,,,,*63
$GPGSA,A,1,,,,,,,,,,,,,99.99,99.99,99.99*30
$GPGSV,2,1,05,02,,,32,12,,,28,24,,,27,25,,,29*7A
$GPGSV,2,2,05,29,,,27*72
$GPGLL,,,,,214750.00,V,N*4F
$GPRMC,214751.00,V,,,,,,,311014,,,N*7F
$GPVTG,,,,,,,,,N*30
$GPGGA,214751.00,,,,,0,00,99.99,,,,,,*62
$GPGSA,A,1,,,,,,,,,,,,,99.99,99.99,99.99*30
$GPGSV,2,1,05,02,,,32,12,,,28,24,,,27,25,,,29*7A
$GPGSV,2,2,05,29,,,27*72
$GPGLL,,,,,214751.00,V,N*4E
$GPRMC,214752.00,V,,,,,,,311014,,,N*7C
$GPVTG,,,,,,,,,N*30
$GPGGA,214752.00,,,,,0,00,99.99,,,,,,*61
$GPGSA,A,1,,,,,,,,,,,,,99.99,99.99,99.99*30
$GPGSV,2,1,05,02,,,32,12,,,29,24,,,26,25,,,28*7B
$GPGSV,2,2,05,29,,,25*70
$GPGLL,,,,,214752.00,V,N*4D
$GPRMC,214753.00,V,,,,,,,311014,,,N*7D
$GPVTG,,,,,,,,,N*30
$GPGGA,214753.00,,,,,0,00,99.99,,,,,,*60
$GPGSA,A,1,,,,,,,,,,,,,99.99,99.99,99.99*30
$GPGSV,2,1,05,02,,,32,12,,,29,24,,,27,25,,,28*7A
$GPGSV,2,2,05,29,,,24*71
$GPGLL,,,,,214753.00,V,N*4C
$GPRMC,214754.00,V,,,,,,,311014,,,N*7A
$GPVTG,,,,,,,,,N*30
$GPGGA,214754.00,,,,,0,00,99.99,,,,,,*67
$GPGSA,A,1,,,,,,,,,,,,,99.99,99.99,99.99*30
$GPGSV,2,1,05,02,,,31,12,,,29,24,,,27,25,,,29*78
$GPGSV,2,2,05,29,,,23*76
$GPGLL,,,,,214754.00,V,N*4B
$GPRMC,214755.00,V,,,,,,,311014,,,N*7B
$GPVTG,,,,,,,,,N*30
$GPGGA,214755.00,,,,,0,00,99.99,,,,,,*66
$GPGSA,A,1,,,,,,,,,,,,,99.99,99.99,99.99*30
$GPGSV,2,1,06,02,,,31,12,,,28,24,,,28,25,,,30*7D
$GPGSV,2,2,06,29,,,23,31,,,28*7D
$GPGLL,,,,,214755.00,V,N*4A
$GPRMC,214756.00,V,,,,,,,311014,,,N*78
$GPVTG,,,,,,,,,N*30
$GPGGA,214756.00,,,,,0,00,99.99,,,,,,*65
$GPGSA,A,1,,,,,,,,,,,,,99.99,99.99,99.99*30
$GPGSV,2,1,05,02,,,31,12,,,28,24,,,27,25,,,30*71
$GPGSV,2,2,05,29,,,24*71
$GPGLL,,,,,214756.00,V,N*49
$GPRMC,214757.00,V,,,,,,,311014,,,N*79
$GPVTG,,,,,,,,,N*30
$GPGGA,214757.00,,,,,0,00,99.99,,,,,,*64
$GPGSA,A,1,,,,,,,,,,,,,99.99,99.99,99.99*30
$GPGSV,2,1,05,02,,,31,12,,,29,24,,,26,25,,,30*71
$GPGSV,2,2,05,29,,,24*71
$GPGLL,,,,,214757.00,V,N*48
$GPRMC,214758.00,V,,,,,,,311014,,,N*76
$GPVTG,,,,,,,,,N*30
$GPGGA,214758.00,,,,,0,00,99.99,,,,,,*6B
$GPGSA,A,1,,,,,,,,,,,,,99.99,99.99,99.99*30
$GPGSV,2,1,05,02,,,30,12,,,28,24,,,26,25,,,29*79
$GPGSV,2,2,05,29,,,24*71
$GPGLL,,,,,214758.00,V,N*47
$GPRMC,214759.00,V,,,,,,,311014,,,N*77
$GPVTG,,,,,,,,,N*30
$GPGGA,214759.00,,,,,0,00,99.99,,,,,,*6A
$GPGSA,A,1,,,,,,,,,,,,,99.99,99.99,99.99*30
$GPGSV,2,1,05,02,,,31,12,,,29,24,,,26,25,,,29*79
$GPGSV,2,2,05,29,,,23*76
$GPGLL,,,,,214759.00,V,N*46
$GPRMC,214800.00,V,,,,,,,311014,,,N*74
$GPVTG,,,,,,,,,N*30
$GPGGA,214800.00,,,,,0,00,99.99,,,,,,*69
$GPGSA,A,1,,,,,,,,,,,,,99.99,99.99,99.99*30
$GPGSV,2,1,05,02,,,31,12,,,28,24,,,26,25,,,29*78
$GPGSV,2,2,05,29,,,23*76
$GPGLL,,,,,214800.00,V,N*45
$GPRMC,214801.00,V,,,,,,,311014,,,N*75
$GPVTG,,,,,,,,,N*30
$GPGGA,214801.00,,,,,0,00,99.99,,,,,,*68
$GPGSA,A,1,,,,,,,,,,,,,99.99,99.99,99.99*30
$GPGSV,2,1,05,02,,,31,12,,,28,24,,,26,25,,,29*78
$GPGSV,2,2,05,29,,,24*71
$GPGLL,,,,,214801.00,V,N*44
$GPRMC,214802.00,V,,,,,,,311014,,,N*76
$GPVTG,,,,,,,,,N*30
$GPGGA,214802.00,,,,,0,00,99.99,,,,,,*6B
$GPGSA,A,1,,,,,,,,,,,,,99.99,99.99,99.99*30
$GPGSV,2,1,05,02,,,31,12,,,28,24,,,26,25,,,28*79
$GPGSV,2,2,05,29,,,23*76
$GPGLL,,,,,214802.00,V,N*47
$GPRMC,214803.00,A,3433.91607,S,05824.03053,W,1.010,,311014,,,A*75
$GPVTG,,T,,M,1.010,N,1.870,K,A*2D
$GPGGA,214803.00,3433.91607,S,05824.03053,W,1,04,2.99,0.0,M,13.6,M,,*5D
$GPGSA,A,2,25,02,12,24,,,,,,,,,3.16,2.99,1.00*04
$GPGSV,2,1,06,02,54,087,31,12,64,157,28,15,00,349,,24,60,003,26*77
$GPGSV,2,2,06,25,44,224,29,29,,,23*4D
$GPGLL,3433.91607,S,05824.03053,W,214803.00,A,A*6A
$GPRMC,214804.00,V,,,,,,,311014,,,N*70
$GPVTG,,,,,,,,,N*30
$GPGGA,214804.00,,,,,0,04,2.99,,,,,,*5B
$GPGSA,A,1,25,02,12,24,,,,,,,,,3.16,2.99,1.00*07
$GPGSV,2,1,06,02,54,087,31,12,64,157,29,15,00,349,,24,60,003,26*76
$GPGSV,2,2,06,25,44,224,29,29,,,23*4D
$GPGLL,,,,,214804.00,V,N*41
$GPRMC,214805.00,V,,,,,,,311014,,,N*71
$GPVTG,,,,,,,,,N*30
$GPGGA,214805.00,,,,,0,04,2.99,,,,,,*5A
$GPGSA,A,1,25,02,12,24,,,,,,,,,3.16,2.99,1.00*07
$GPGSV,2,1,07,02,54,087,31,03,,,23,12,64,157,28,15,00,349,*43
$GPGSV,2,2,07,24,60,003,26,25,44,224,29,29,,,23*7B
$GPGLL,,,,,214805.00,V,N*40
$GPRMC,214806.00,A,3433.91531,S,05824.03052,W,0.927,,311014,,,A*7B
$GPVTG,,T,,M,0.927,N,1.717,K,A*2F
$GPGGA,214806.00,3433.91531,S,05824.03052,W,1,04,2.99,-0.1,M,13.6,M,,*73
$GPGSA,A,2,25,02,12,24,,,,,,,,,3.16,2.99,1.00*04
$GPGSV,2,1,07,02,54,087,31,04,,,20,12,64,157,29,15,00,349,*46
$GPGSV,2,2,07,24,60,003,27,25,44,224,30,29,,,21*70
$GPGLL,3433.91531,S,05824.03052,W,214806.00,A,A*68
$GPRMC,214807.00,A,3433.91544,S,05824.03053,W,0.141,,311014,,,A*71
$GPVTG,,T,,M,0.141,N,0.261,K,A*22
$GPGGA,214807.00,3433.91544,S,05824.03053,W,1,04,3.00,0.2,M,13.6,M,,*5E
$GPGSA,A,2,25,02,12,24,,,,,,,,,3.16,3.00,1.00*05
$GPGSV,2,1,06,02,54,087,32,12,64,157,29,15,00,349,,24,60,003,26*75
$GPGSV,2,2,06,25,44,224,30,29,,,19*4C
$GPGLL,3433.91544,S,05824.03053,W,214807.00,A,A*6A
$GPRMC,214808.00,A,3433.91518,S,05824.03078,W,0.530,,311014,,,A*7C
$GPVTG,,T,,M,0.530,N,0.982,K,A*26
$GPGGA,214808.00,3433.91518,S,05824.03078,W,1,04,3.00,-0.3,M,13.6,M,,*7D
$GPGSA,A,2,25,02,12,24,,,,,,,,,3.16,3.00,1.00*05
$GPGSV,2,1,06,02,54,087,32,12,64,157,29,15,00,349,,24,60,003,26*75
$GPGSV,2,2,06,25,44,224,30,29,,,22*44
$GPGLL,3433.91518,S,05824.03078,W,214808.00,A,A*65
$GPRMC,214809.00,A,3433.91506,S,05824.03072,W,0.319,,311014,,,A*75
$GPVTG,,T,,M,0.319,N,0.590,K,A*24
$GPGGA,214809.00,3433.91506,S,05824.03072,W,1,04,3.00,-0.2,M,13.6,M,,*78
$GPGSA,A,2,25,02,12,24,,,,,,,,,3.16,3.00,1.00*05
$GPGSV,2,1,06,02,54,087,31,12,64,157,29,15,00,349,,24,60,003,26*76
$GPGSV,2,2,06,25,44,224,30,29,,,23*45
$GPGLL,3433.91506,S,05824.03072,W,214809.00,A,A*61
$GPRMC,214810.00,A,3433.91484,S,05824.03058,W,1.125,,311014,,,A*72
$GPVTG,,T,,M,1.125,N,2.083,K,A*2D
$GPGGA,214810.00,3433.91484,S,05824.03058,W,1,04,3.00,-0.4,M,13.6,M,,*75
$GPGSA,A,2,25,02,12,24,,,,,,,,,3.16,3.00,1.00*05
$GPGSV,2,1,06,02,54,087,31,12,64,157,30,15,00,349,,24,60,003,26*7E
$GPGSV,2,2,06,25,44,224,30,29,,,22*44
$GPGLL,3433.91484,S,05824.03058,W,214810.00,A,A*6A
$GPRMC,214811.00,A,3433.91480,S,05824.03065,W,2.201,,311014,,,A*7F
$GPVTG,,T,,M,2.201,N,4.076,K,A*27
$GPGGA,214811.00,3433.91480,S,05824.03065,W,1,04,3.00,0.2,M,13.6,M,,*55
$GPGSA,A,2,25,02,12,24,,,,,,,,,3.16,3.00,1.00*05
$GPGSV,2,1,06,02,54,087,31,12,64,157,29,15,00,349,,24,60,003,26*76
$GPGSV,2,2,06,25,44,224,30,29,,,22*44
$GPGLL,3433.91480,S,05824.03065,W,214811.00,A,A*61
$GPRMC,214812.00,A,3433.91482,S,05824.03066,W,1.583,,311014,,,A*73
$GPVTG,,T,,M,1.583,N,2.931,K,A*25
$GPGGA,214812.00,3433.91482,S,05824.03066,W,1,04,3.00,-0.5,M,13.6,M,,*7D
$GPGSA,A,2,25,02,12,24,,,,,,,,,3.16,3.00,1.00*05
$GPGSV,2,1,06,02,54,087,32,12,64,157,29,15,00,349,,24,60,003,26*75
$GPGSV,2,2,06,25,44,224,29,29,,,22*4C
$GPGLL,3433.91482,S,05824.03066,W,214812.00,A,A*63
$GPRMC,214813.00,A,3433.91477,S,05824.03060,W,0.039,,311014,,,A*7B
$GPVTG,,T,,M,0.039,N,0.072,K,A*2C
$GPGGA,214813.00,3433.91477,S,05824.03060,W,1,04,3.00,-1.1,M,13.6,M,,*75
$GPGSA,A,2,25,02,12,24,,,,,,,,,3.16,3.00,1.00*05
$GPGSV,2,1,06,02,54,087,31,12,64,156,29,15,00,349,,24,60,003,25*74
$GPGSV,2,2,06,25,44,224,29,29,,,23*4D
$GPGLL,3433.91477,S,05824.03060,W,214813.00,A,A*6E
$GPRMC,214814.00,A,3433.91460,S,05824.03067,W,0.875,,311014,,,A*7D
$GPVTG,,T,,M,0.875,N,1.621,K,A*2D
$GPGGA,214814.00,3433.91460,S,05824.03067,W,1,04,3.00,-1.6,M,13.6,M,,*74
$GPGSA,A,2,25,02,12,24,,,,,,,,,3.16,3.00,1.00*05
$GPGSV,2,1,06,02,54,087,32,12,64,156,29,15,00,349,,24,60,003,25*77
$GPGSV,2,2,06,25,44,224,29,29,,,24*4A
$GPGLL,3433.91460,S,05824.03067,W,214814.00,A,A*68
$GPRMC,214815.00,A,3433.91447,S,05824.03036,W,0.445,,311014,,,A*72
$GPVTG,,T,,M,0.445,N,0.823,K,A*2F
$GPGGA,214815.00,3433.91447,S,05824.03036,W,1,04,3.00,-2.3,M,13.6,M,,*72
$GPGSA,A,2,25,02,12,24,,,,,,,,,3.16,3.00,1.00*05
$GPGSV,2,1,07,02,54,087,32,12,64,156,30,13,,,23,15,00,349,*49
$GPGSV,2,2,07,24,60,003,24,25,44,224,29,29,,,25*7F
$GPGLL,3433.91447,S,05824.03036,W,214815.00,A,A*68
$GPRMC,214816.00,A,3433.91429,S,05824.03027,W,1.265,,311014,,,A*7C
$GPVTG,,T,,M,1.265,N,2.343,K,A*25
$GPGGA,214816.00,3433.91429,S,05824.03027,W,1,04,3.00,-2.0,M,13.6,M,,*7A
$GPGSA,A,2,25,02,12,24,,,,,,,,,3.16,3.00,1.00*05
$GPGSV,2,1,07,02,54,087,32,12,64,156,30,14,,,28,15,00,349,*45
$GPGSV,2,2,07,24,60,003,23,25,44,224,29,29,,,25*78
$GPGLL,3433.91429,S,05824.03027,W,214816.00,A,A*63
$GPRMC,214817.00,A,3433.91421,S,05824.03006,W,1.878,,311014,,,A*70
$GPVTG,,T,,M,1.878,N,3.478,K,A*2D
$GPGGA,214817.00,3433.91421,S,05824.03006,W,1,04,3.00,-1.8,M,13.6,M,,*7B
$GPGSA,A,2,25,02,12,24,,,,,,,,,3.16,3.00,1.00*05
$GPGSV,2,1,07,02,54,087,32,12,64,156,30,14,,,27,15,00,349,28*40
$GPGSV,2,2,07,24,60,003,23,25,44,224,30,29,,,24*71
$GPGLL,3433.91421,S,05824.03006,W,214817.00,A,A*69
$GPRMC,214818.00,A,3433.91421,S,05824.02998,W,0.743,,311014,,,A*76
$GPVTG,,T,,M,0.743,N,1.376,K,A*20
$GPGGA,214818.00,3433.91421,S,05824.02998,W,1,04,3.00,-0.9,M,13.6,M,,*7B
$GPGSA,A,2,25,02,12,24,,,,,,,,,3.16,3.00,1.00*05
$GPGSV,2,1,08,02,54,087,30,12,64,156,30,14,,,25,15,00,349,*45
$GPGSV,2,2,08,16,,,25,24,60,003,25,25,44,224,28,29,,,21*74
$GPGLL,3433.91421,S,05824.02998,W,214818.00,A,A*69
$GPRMC,214819.00,A,3433.91421,S,05824.02994,W,0.318,,311014,,,A*71
$GPVTG,,T,,M,0.318,N,0.589,K,A*2D
$GPGGA,214819.00,3433.91421,S,05824.02994,W,1,04,3.00,-1.2,M,13.6,M,,*7C
$GPGSA,A,2,25,02,12,24,,,,,,,,,3.16,3.00,1.00*05
$GPGSV,2,1,08,02,54,087,30,12,64,156,27,14,,,25,15,00,349,*43
$GPGSV,2,2,08,17,,,25,24,60,003,25,25,44,224,26,29,,,19*70
$GPGLL,3433.91421,S,05824.02994,W,214819.00,A,A*64
$GPRMC,214820.00,A,3433.91419,S,05824.02984,W,0.203,,311014,,,A*7A
$GPVTG,,T,,M,0.203,N,0.376,K,A*20
$GPGGA,214820.00,3433.91419,S,05824.02984,W,1,04,3.00,-2.1,M,13.6,M,,*7C
$GPGSA,A,2,25,02,12,24,,,,,,,,,3.16,3.00,1.00*05
$GPGSV,2,1,08,02,54,087,30,12,64,156,28,14,,,25,15,00,349,*4C
$GPGSV,2,2,08,18,,,22,24,60,003,24,25,44,224,27,29,,,17*76
$GPGLL,3433.91419,S,05824.02984,W,214820.00,A,A*64
$GPRMC,214821.00,A,3433.91418,S,05824.02981,W,1.061,,311014,,,A*78
$GPVTG,,T,,M,1.061,N,1.965,K,A*2E
$GPGGA,214821.00,3433.91418,S,05824.02981,W,1,04,3.00,-1.5,M,13.6,M,,*7E
$GPGSA,A,2,25,02,12,24,,,,,,,,,3.17,3.00,1.00*04
$GPGSV,2,1,08,02,54,087,31,12,64,156,29,14,,,26,15,00,349,*4F
$GPGSV,2,2,08,19,,,24,24,60,003,25,25,44,224,33,29,,,21*70
$GPGLL,3433.91418,S,05824.02981,W,214821.00,A,A*61
$GPRMC,214822.00,V,,,,,,,311014,,,N*74
$GPVTG,,,,,,,,,N*30
$GPGGA,214822.00,,,,,0,04,2.14,,,,,,*5A
$GPGSA,A,1,25,02,12,24,,,,,,,,,8.69,2.14,8.42*0E
$GPGSV,2,1,07,02,54,087,30,12,64,156,30,14,,,26,15,00,349,*49
$GPGSV,2,2,07,24,60,003,26,25,44,224,33,29,,,23*70
$GPGLL,,,,,214822.00,V,N*45
$GPRMC,214823.00,V,,,,,,,311014,,,N*75
$GPVTG,,,,,,,,,N*30
$GPGGA,214823.00,,,,,0,04,2.14,,,,,,*5B
$GPGSA,A,1,25,02,12,24,,,,,,,,,8.69,2.14,8.42*0E
$GPGSV,2,1,08,02,54,087,31,12,64,156,29,14,,,26,15,00,349,*4F
$GPGSV,2,2,08,21,,,19,24,60,003,26,25,44,224,34,29,,,25*75
$GPGLL,,,,,214823.00,V,N*44
$GPRMC,214824.00,V,,,,,,,311014,,,N*72
$GPVTG,,,,,,,,,N*30
$GPGGA,214824.00,,,,,0,04,2.14,,,,,,*5C
$GPGSA,A,1,25,02,12,24,,,,,,,,,8.70,2.14,8.43*07
$GPGSV,2,1,07,02,54,087,32,12,64,156,30,14,,,27,15,00,349,*4A
$GPGSV,2,2,07,24,60,003,24,25,44,224,35,29,,,26*71
$GPGLL,,,,,214824.00,V,N*43
$GPRMC,214825.00,V,,,,,,,311014,,,N*73
$GPVTG,,,,,,,,,N*30
$GPGGA,214825.00,,,,,0,04,2.14,,,,,,*5D
$GPGSA,A,1,25,02,12,24,,,,,,,,,8.70,2.14,8.43*07
$GPGSV,2,1,07,02,54,087,32,12,64,156,30,14,,,27,15,00,349,*4A
$GPGSV,2,2,07,24,59,003,23,25,44,224,34,29,,,26*7D
$GPGLL,,,,,214825.00,V,N*42
$GPRMC,214826.00,V,,,,,,,311014,,,N*70
$GPVTG,,,,,,,,,N*30
$GPGGA,214826.00,,,,,0,04,2.14,,,,,,*5E
$GPGSA,A,1,25,02,12,24,,,,,,,,,8.70,2.14,8.44*00
$GPGSV,2,1,07,02,54,087,32,12,64,156,30,14,,,27,15,00,349,*4A
$GPGSV,2,2,07,24,59,003,24,25,44,224,34,29,,,25*79
$GPGLL,,,,,214826.00,V,N*41
$GPRMC,214827.00,A,3433.91308,S,05824.02491,W,0.458,,311014,,,A*7B
$GPVTG,,T,,M,0.458,N,0.848,K,A*2E
$GPGGA,214827.00,3433.91308,S,05824.02491,W,1,04,2.14,62.4,M,13.6,M,,*6F
$GPGSA,A,3,25,02,12,24,,,,,,,,,8.71,2.14,8.44*03
$GPGSV,2,1,08,02,54,087,32,12,64,156,30,14,,,28,15,00,349,*4A
$GPGSV,2,2,08,19,,,21,24,59,003,25,25,44,224,35,29,,,23*7B
$GPGLL,3433.91308,S,05824.02491,W,214827.00,A,A*6D
$GPRMC,214828.00,A,3433.91318,S,05824.02494,W,0.480,,311014,,,A*75
$GPVTG,,T,,M,0.480,N,0.888,K,A*27
$GPGGA,214828.00,3433.91318,S,05824.02494,W,1,04,2.14,59.4,M,13.6,M,,*6C
$GPGSA,A,3,25,02,12,24,,,,,,,,,8.71,2.14,8.44*03
$GPGSV,2,1,08,02,54,087,32,12,64,156,30,14,,,27,15,00,349,*45
$GPGSV,2,2,08,19,,,17,24,59,003,26,25,44,224,34,29,,,22*7D
$GPGLL,3433.91318,S,05824.02494,W,214828.00,A,A*66
$GPRMC,214829.00,A,3433.91324,S,05824.02488,W,0.146,,311014,,,A*79
$GPVTG,,T,,M,0.146,N,0.271,K,A*24
$GPGGA,214829.00,3433.91324,S,05824.02488,W,1,04,2.14,56.6,M,13.6,M,,*62
$GPGSA,A,3,25,02,12,24,,,,,,,,,8.71,2.14,8.45*02
$GPGSV,2,1,08,02,54,087,32,12,64,156,30,14,,,27,15,00,349,*45
$GPGSV,2,2,08,19,,,15,24,59,003,26,25,44,224,35,29,,,21*7D
$GPGLL,3433.91324,S,05824.02488,W,214829.00,A,A*65
$GPRMC,214830.00,A,3433.91322,S,05824.02478,W,0.086,,311014,,,A*75
$GPVTG,,T,,M,0.086,N,0.159,K,A*20
$GPGGA,214830.00,3433.91322,S,05824.02478,W,1,04,2.14,55.1,M,13.6,M,,*67
$GPGSA,A,3,25,02,12,24,,,,,,,,,8.72,2.14,8.45*01
$GPGSV,2,1,08,02,54,087,32,12,64,156,30,14,,,26,15,00,349,*44
$GPGSV,2,2,08,19,,,15,24,59,003,26,25,44,224,35,29,,,23*7F
$GPGLL,3433.91322,S,05824.02478,W,214830.00,A,A*64
$GPRMC,214831.00,A,3433.91316,S,05824.02474,W,0.318,,311014,,,A*7B
$GPVTG,,T,,M,0.318,N,0.589,K,A*2D
$GPGGA,214831.00,3433.91316,S,05824.02474,W,1,04,2.14,54.5,M,13.6,M,,*68
$GPGSA,A,3,25,02,12,24,,,,,,,,,8.72,2.14,8.45*01
$GPGSV,2,1,08,02,54,087,32,12,64,156,30,14,,,26,15,00,349,*44
$GPGSV,2,2,08,19,,,15,24,59,003,25,25,44,224,35,29,,,24*7B
$GPGLL,3433.91316,S,05824.02474,W,214831.00,A,A*6E
$GPRMC,214832.00,A,3433.91295,S,05824.02480,W,0.394,,311014,,,A*7D
$GPVTG,,T,,M,0.394,N,0.731,K,A*28
$GPGGA,214832.00,3433.91295,S,05824.02480,W,1,04,2.14,54.5,M,13.6,M,,*6A
$GPGSA,A,3,25,02,12,24,,,,,,,,,8.72,2.14,8.46*02
$GPGSV,2,1,08,02,54,087,32,12,64,156,30,14,,,26,15,00,349,*44
$GPGSV,2,2,08,19,,,15,24,59,003,26,25,44,224,36,29,,,25*7A
$GPGLL,3433.91295,S,05824.02480,W,214832.00,A,A*6C
$GPRMC,214833.00,A,3433.91275,S,05824.02493,W,0.507,,311014,,,A*7C
$GPVTG,,T,,M,0.507,N,0.938,K,A*23
$GPGGA,214833.00,3433.91275,S,05824.02493,W,1,04,2.14,54.6,M,13.6,M,,*64
$GPGSA,A,3,25,02,12,24,,,,,,,,,8.73,2.14,8.46*03
$GPGSV,2,1,08,02,54,087,33,12,64,156,29,14,,,26,15,00,349,*4D
$GPGSV,2,2,08,19,,,15,24,59,003,25,25,44,224,35,29,,,24*7B
$GPGLL,3433.91275,S,05824.02493,W,214833.00,A,A*61
$GPRMC,214834.00,A,3433.91245,S,05824.02509,W,0.171,,311014,,,A*7F
$GPVTG,,T,,M,0.171,N,0.317,K,A*21
$GPGGA,214834.00,3433.91245,S,05824.02509,W,1,04,2.14,55.2,M,13.6,M,,*67
$GPGSA,A,3,25,02,12,24,,,,,,,,,8.73,2.14,8.47*02
$GPGSV,2,1,07,02,54,087,33,12,64,156,29,14,,,25,15,00,349,*41
$GPGSV,2,2,07,24,59,003,25,25,44,224,34,29,,,22*7F
$GPGLL,3433.91245,S,05824.02509,W,214834.00,A,A*67
$GPRMC,214835.00,A,3433.91227,S,05824.02526,W,0.249,,311014,,,A*7F
$GPVTG,,T,,M,0.249,N,0.462,K,A*2C
$GPGGA,214835.00,3433.91227,S,05824.02526,W,1,04,2.14,56.2,M,13.6,M,,*6C
$GPGSA,A,3,25,02,12,24,,,,,,,,,8.73,2.14,8.47*02
$GPGSV,2,1,07,02,54,087,32,12,64,156,29,14,,,25,15,00,349,*40
$GPGSV,2,2,07,24,59,003,25,25,44,224,34,29,,,23*7E
$GPGLL,3433.91227,S,05824.02526,W,214835.00,A,A*6F
$GPRMC,214836.00,A,3433.91213,S,05824.02533,W,0.148,,311014,,,A*7D
$GPVTG,,T,,M,0.148,N,0.274,K,A*2F
$GPGGA,214836.00,3433.91213,S,05824.02533,W,1,04,2.14,55.7,M,13.6,M,,*6A
$GPGSA,A,3,25,02,12,24,,,,,,,,,8.74,2.14,8.47*05
$GPGSV,2,1,07,02,54,087,32,12,64,156,29,14,,,25,15,00,349,*40
$GPGSV,2,2,07,24,59,003,26,25,44,224,34,29,,,23*7D
$GPGLL,3433.91213,S,05824.02533,W,214836.00,A,A*6F
$GPRMC,214837.00,A,3433.91201,S,05824.02539,W,0.047,,311014,,,A*7B
$GPVTG,,T,,M,0.047,N,0.087,K,A*2F
$GPGGA,214837.00,3433.91201,S,05824.02539,W,1,04,2.14,55.8,M,13.6,M,,*6D
$GPGSA,A,3,25,02,12,24,,,,,,,,,8.74,2.14,8.48*0A
$GPGSV,2,1,07,02,54,087,31,12,64,156,29,14,,,24,15,00,349,*42
$GPGSV,2,2,07,24,59,003,26,25,44,224,34,29,,,24*7A
$GPGLL,3433.91201,S,05824.02539,W,214837.00,A,A*67
$GPRMC,214838.00,A,3433.91214,S,05824.02537,W,0.163,,311014,,,A*79
$GPVTG,,T,,M,0.163,N,0.301,K,A*25
$GPGGA,214838.00,3433.91214,S,05824.02537,W,1,04,2.14,56.0,M,13.6,M,,*63
$GPGSA,A,3,25,02,12,24,,,,,,,,,8.75,2.14,8.48*0B
$GPGSV,2,1,07,02,54,087,31,12,64,156,29,14,,,24,15,00,349,*42
$GPGSV,2,2,07,24,59,003,26,25,44,224,33,29,,,25*7C
$GPGLL,3433.91214,S,05824.02537,W,214838.00,A,A*62
$GPRMC,214839.00,A,3433.91207,S,05824.02539,W,0.172,,311014,,,A*74
$GPVTG,,T,,M,0.172,N,0.318,K,A*2D
$GPGGA,214839.00,3433.91207,S,05824.02539,W,1,04,2.14,55.3,M,13.6,M,,*6E
$GPGSA,A,3,25,02,12,24,,,,,,,,,8.75,2.14,8.48*0B
$GPGSV,2,1,07,02,54,087,31,12,64,156,31,14,,,24,15,00,349,*4B
$GPGSV,2,2,07,24,59,003,25,25,44,224,32,29,,,27*7C
$GPGLL,3433.91207,S,05824.02539,W,214839.00,A,A*6F
$GPRMC,214839.00,A,3433.91219,S,05824.02592,W,2.221,,311014,,,A*7D
$GPVTG,,T,,M,2.221,N,4.112,K,A*26
$GPGGA,214839.00,3433.91219,S,05824.02592,W,1,04,2.14,58.7,M,13.6,M,,*69
$GPGSA,A,3,25,02,12,24,,,,,,,,,8.75,2.14,8.49*0A
$GPGSV,2,1,07,02,54,087,32,12,64,156,32,14,,,23,15,00,349,*4C
$GPGSV,2,2,07,24,59,003,24,25,44,224,25,29,,,26*7A
$GPGLL,3433.91219,S,05824.02592,W,214839.00,A,A*61
$GPRMC,214840.00,A,3433.91153,S,05824.02639,W,4.587,316.95,311014,,,A*67
$GPVTG,316.95,T,,M,4.587,N,8.495,K,A*3B
$GPGGA,214840.00,3433.91153,S,05824.02639,W,1,04,2.14,60.9,M,13.6,M,,*6D
$GPGSA,A,3,25,02,12,24,,,,,,,,,8.76,2.14,8.49*09
$GPGSV,2,1,07,02,54,087,31,12,64,156,32,14,,,21,15,00,349,*4D
$GPGSV,2,2,07,24,59,003,22,25,44,224,26,29,,,27*7E
$GPGLL,3433.91153,S,05824.02639,W,214840.00,A,A*60
$GPRMC,214841.00,A,3433.91139,S,05824.02649,W,3.819,318.00,311014,,,A*62
$GPVTG,318.00,T,,M,3.819,N,7.073,K,A*37
$GPGGA,214841.00,3433.91139,S,05824.02649,W,1,04,2.14,62.0,M,13.6,M,,*6C
$GPGSA,A,3,25,02,12,24,,,,,,,,,8.76,2.14,8.50*01
$GPGSV,2,1,07,02,54,087,31,12,64,156,32,14,,,20,15,00,349,*4C
$GPGSV,2,2,07,24,59,003,22,25,44,224,26,29,,,25*7C
$GPGLL,3433.91139,S,05824.02649,W,214841.00,A,A*6A
$GPRMC,214842.00,A,3433.91111,S,05824.02656,W,3.284,,311014,,,A*7F
$GPVTG,,T,,M,3.284,N,6.081,K,A*21
$GPGGA,214842.00,3433.91111,S,05824.02656,W,1,04,2.14,63.7,M,13.6,M,,*6D
$GPGSA,A,3,25,02,12,24,,,,,,,,,8.76,2.14,8.50*01
$GPGSV,2,1,07,02,54,087,30,12,64,156,31,14,,,20,15,00,349,*4E
$GPGSV,2,2,07,24,59,003,23,25,44,224,25,29,,,22*79
$GPGLL,3433.91111,S,05824.02656,W,214842.00,A,A*6D
$GPRMC,214843.00,A,3433.91099,S,05824.02670,W,2.458,,311014,,,A*7D
$GPVTG,,T,,M,2.458,N,4.552,K,A*2E
$GPGGA,214843.00,3433.91099,S,05824.02670,W,1,04,2.14,63.5,M,13.6,M,,*6B
$GPGSA,A,3,25,02,12,24,,,,,,,,,8.77,2.14,8.50*00
$GPGSV,2,1,07,02,54,087,30,12,64,156,23,14,,,20,15,00,349,*4D
$GPGSV,2,2,07,24,59,003,24,25,44,224,25,29,,,21*7D
$GPGLL,3433.91099,S,05824.02670,W,214843.00,A,A*69
$GPRMC,214844.00,A,3433.91104,S,05824.02692,W,2.636,,311014,,,A*79
$GPVTG,,T,,M,2.636,N,4.882,K,A*24
$GPGGA,214844.00,3433.91104,S,05824.02692,W,1,04,2.14,62.2,M,13.6,M,,*63
$GPGSA,A,3,25,02,12,24,,,,,,,,,8.77,2.14,8.51*01
$GPGSV,2,1,06,02,54,087,29,12,64,156,22,15,00,349,,24,59,003,24*7D
$GPGSV,2,2,06,25,44,224,22,29,,,17*41
$GPGLL,3433.91104,S,05824.02692,W,214844.00,A,A*67
$GPRMC,214845.00,A,3433.91141,S,05824.02760,W,3.997,,311014,,,A*70
$GPVTG,,T,,M,3.997,N,7.402,K,A*26
$GPGGA,214845.00,3433.91141,S,05824.02760,W,1,04,2.14,61.3,M,13.6,M,,*6D
$GPGSA,A,3,25,02,12,24,,,,,,,,,8.77,2.14,8.51*01
$GPGSV,2,1,06,02,54,087,29,12,64,156,24,15,00,349,,24,59,003,23*7C
$GPGSV,2,2,06,25,44,224,20,29,,,17*43
$GPGLL,3433.91141,S,05824.02760,W,214845.00,A,A*6B
$GPRMC,214846.00,A,3433.91277,S,05824.02980,W,7.994,293.17,311014,,,A*62
$GPVTG,293.17,T,,M,7.994,N,14.805,K,A*08
$GPGGA,214846.00,3433.91277,S,05824.02980,W,1,04,2.14,61.7,M,13.6,M,,*6C
$GPGSA,A,3,25,02,12,24,,,,,,,,,8.78,2.14,8.51*0E
$GPGSV,2,1,06,02,54,087,28,12,64,156,25,15,00,349,,24,59,003,21*7E
$GPGSV,2,2,06,25,44,224,16,29,,,17*46
$GPGLL,3433.91277,S,05824.02980,W,214846.00,A,A*6E
$GPRMC,214847.00,A,3433.91243,S,05824.02960,W,7.018,279.01,311014,,,A*64
$GPVTG,279.01,T,,M,7.018,N,12.998,K,A*05
$GPGGA,214847.00,3433.91243,S,05824.02960,W,1,04,3.02,40.0,M,13.6,M,,*66
$GPGSA,A,2,25,02,12,24,,,,,,,,,3.18,3.02,1.00*09
$GPGSV,2,1,06,02,54,087,27,12,64,156,27,15,00,349,,24,59,003,22*70
$GPGSV,2,2,06,25,44,224,12,29,,,18*4D
$GPGLL,3433.91243,S,05824.02960,W,214847.00,A,A*66
$GPRMC,214848.00,A,3433.91250,S,05824.02931,W,5.392,,311014,,,A*7D
$GPVTG,,T,,M,5.392,N,9.986,K,A*20
$GPGGA,214848.00,3433.91250,S,05824.02931,W,1,04,3.02,27.8,M,13.6,M,,*66
$GPGSA,A,2,25,02,12,24,,,,,,,,,3.18,3.02,1.00*09
$GPGSV,2,1,06,02,54,087,26,12,64,156,26,15,00,349,,24,59,003,23*71
$GPGSV,2,2,06,25,44,224,10,29,,,16*41
$GPGLL,3433.91250,S,05824.02931,W,214848.00,A,A*6F
$GPRMC,214849.00,A,3433.91394,S,05824.02721,W,2.750,,311014,,,A*77
$GPVTG,,T,,M,2.750,N,5.093,K,A*2C
$GPGGA,214849.00,3433.91394,S,05824.02721,W,1,04,3.02,22.5,M,13.6,M,,*69
$GPGSA,A,2,25,02,12,24,,,,,,,,,3.18,3.02,1.00*09
$GPGSV,2,1,06,02,54,087,24,12,64,156,27,15,00,349,,24,59,003,24*75
$GPGSV,2,2,06,25,44,224,13,29,,,17*43
$GPGLL,3433.91394,S,05824.02721,W,214849.00,A,A*68
$GPRMC,214850.00,A,3433.91422,S,05824.02782,W,3.095,,311014,,,A*73
$GPVTG,,T,,M,3.095,N,5.733,K,A*2E
$GPGGA,214850.00,3433.91422,S,05824.02782,W,1,04,3.02,18.0,M,13.6,M,,*6E
$GPGSA,A,2,25,02,12,24,,,,,,,,,3.18,3.02,1.00*09
$GPGSV,2,1,06,02,54,087,22,12,64,156,25,15,00,349,,24,59,003,24*71
$GPGSV,2,2,06,25,44,224,17,29,,,20*43
$GPGLL,3433.91422,S,05824.02782,W,214850.00,A,A*63
$GPRMC,214851.00,A,3433.91398,S,05824.02796,W,2.613,,311014,,,A*78
$GPVTG,,T,,M,2.613,N,4.840,K,A*2D
$GPGGA,214851.00,3433.91398,S,05824.02796,W,1,04,3.02,17.9,M,13.6,M,,*6A
$GPGSA,A,2,25,02,12,24,,,,,,,,,3.18,3.02,1.00*09
$GPGSV,2,1,06,02,54,087,20,12,64,156,26,15,00,349,,24,59,003,23*77
$GPGSV,2,2,06,25,44,224,18,29,,,21*4D
$GPGLL,3433.91398,S,05824.02796,W,214851.00,A,A*61
$GPRMC,214852.00,A,3433.91421,S,05824.02779,W,1.588,,311014,,,A*7D
$GPVTG,,T,,M,1.588,N,2.941,K,A*29
$GPGGA,214852.00,3433.91421,S,05824.02779,W,1,04,3.02,14.9,M,13.6,M,,*6E
$GPGSA,A,2,25,02,12,24,,,,,,,,,3.18,3.02,1.00*09
$GPGSV,2,1,06,02,54,087,21,12,64,156,32,15,00,349,,24,59,003,23*73
$GPGSV,2,2,06,25,44,224,23,29,,,21*45
$GPGLL,3433.91421,S,05824.02779,W,214852.00,A,A*66
$GPRMC,214853.00,A,3433.91405,S,05824.03002,W,1.569,,311014,,,A*7F
$GPVTG,,T,,M,1.569,N,2.906,K,A*25
$GPGGA,214853.00,3433.91405,S,05824.03002,W,1,04,2.13,20.7,M,13.6,M,,*6B
$GPGSA,A,3,25,02,12,24,,,,,,,,,8.80,2.13,8.54*0B
$GPGSV,2,1,06,02,54,087,21,12,64,156,32,15,00,349,,24,59,003,26*76
$GPGSV,2,2,06,25,44,224,25,29,,,21*43
$GPGLL,3433.91405,S,05824.03002,W,214853.00,A,A*6B
$GPRMC,214854.00,A,3433.91302,S,05824.03025,W,0.973,,311014,,,A*7B
$GPVTG,,T,,M,0.973,N,1.802,K,A*25
$GPGGA,214854.00,3433.91302,S,05824.03025,W,1,04,2.13,22.3,M,13.6,M,,*6F
$GPGSA,A,3,25,02,12,24,,,,,,,,,8.81,2.13,8.54*0A
$GPGSV,2,1,06,02,54,087,22,12,64,156,32,15,00,349,,24,59,003,26*75
$GPGSV,2,2,06,25,44,224,28,29,,,22*4D
$GPGLL,3433.91302,S,05824.03025,W,214854.00,A,A*69
$GPRMC,214855.00,A,3433.91210,S,05824.02942,W,0.726,,311014,,,A*7F
$GPVTG,,T,,M,0.726,N,1.345,K,A*23
$GPGGA,214855.00,3433.91210,S,05824.02942,W,1,04,2.13,24.3,M,13.6,M,,*63
$GPGSA,A,3,25,02,12,24,,,,,,,,,8.81,2.13,8.55*0B
$GPGSV,2,1,06,02,54,087,22,12,64,156,32,15,00,349,,24,59,003,25*76
$GPGSV,2,2,06,25,44,224,33,29,,,23*46
$GPGLL,3433.91210,S,05824.02942,W,214855.00,A,A*63
$GPRMC,214856.00,A,3433.91210,S,05824.02847,W,0.615,,311014,,,A*79
$GPVTG,,T,,M,0.615,N,1.139,K,A*2B
$GPGGA,214856.00,3433.91210,S,05824.02847,W,1,04,2.13,26.6,M,13.6,M,,*63
$GPGSA,A,3,25,02,12,24,,,,,,,,,8.81,2.13,8.55*0B
$GPGSV,2,1,06,02,54,087,25,12,64,156,32,15,00,349,,24,59,003,25*71
$GPGSV,2,2,06,25,44,224,33,29,,,24*41
$GPGLL,3433.91210,S,05824.02847,W,214856.00,A,A*64
$GPRMC,214857.00,A,3433.91219,S,05824.02791,W,0.776,,311014,,,A*71
$GPVTG,,T,,M,0.776,N,1.437,K,A*24
$GPGGA,214857.00,3433.91219,S,05824.02791,W,1,04,2.13,27.7,M,13.6,M,,*6F
$GPGSA,A,3,25,02,12,24,,,,,,,,,8.82,2.13,8.55*08
$GPGSV,2,1,06,02,54,087,26,12,64,156,32,15,00,349,,24,59,003,23*74
$GPGSV,2,2,06,25,44,224,32,29,,,25*41
$GPGLL,3433.91219,S,05824.02791,W,214857.00,A,A*68
$GPRMC,214858.00,A,3433.91221,S,05824.02631,W,1.303,,311014,,,A*79
$GPVTG,,T,,M,1.303,N,2.414,K,A*21
$GPGGA,214858.00,3433.91221,S,05824.02631,W,1,04,2.13,28.5,M,13.6,M,,*6D
$GPGSA,A,3,25,02,12,24,,,,,,,,,8.82,2.13,8.56*0B
$GPGSV,2,1,06,02,54,087,27,12,64,156,32,15,00,349,,24,59,003,24*72
$GPGSV,2,2,06,25,44,224,32,29,,,24*40
$GPGLL,3433.91221,S,05824.02631,W,214858.00,A,A*67
$GPRMC,214859.00,A,3433.91228,S,05824.02604,W,0.616,,311014,,,A*77
$GPVTG,,T,,M,0.616,N,1.141,K,A*27
$GPGGA,214859.00,3433.91228,S,05824.02604,W,1,04,2.13,30.0,M,13.6,M,,*6F
$GPGSA,A,3,25,02,12,24,,,,,,,,,8.82,2.13,8.56*0B
$GPGSV,2,1,06,02,54,087,26,12,64,156,32,15,00,349,,24,59,003,24*73
$GPGSV,2,2,06,25,44,224,29,29,,,27*49
$GPGLL,3433.91228,S,05824.02604,W,214859.00,A,A*69
$GPRMC,214900.00,A,3433.91233,S,05824.02577,W,0.778,,311014,,,A*7E
$GPVTG,,T,,M,0.778,N,1.441,K,A*2B
$GPGGA,214900.00,3433.91233,S,05824.02577,W,1,04,2.13,31.7,M,13.6,M,,*69
$GPGSA,A,3,25,02,12,24,,,,,,,,,8.83,2.13,8.57*0B
$GPGSV,2,1,06,02,54,087,24,12,64,156,32,15,00,349,,24,59,003,24*71
$GPGSV,2,2,06,25,44,224,29,29,,,28*46
$GPGLL,3433.91233,S,05824.02577,W,214900.00,A,A*69
$GPRMC,214901.00,A,3433.91208,S,05824.02556,W,1.542,,311014,,,A*7E
$GPVTG,,T,,M,1.542,N,2.855,K,A*2B
$GPGGA,214901.00,3433.91208,S,05824.02556,W,1,04,2.13,32.5,M,13.6,M,,*62
$GPGSA,A,3,25,02,12,24,,,,,,,,,8.83,2.13,8.57*0B
$GPGSV,2,1,06,02,54,087,23,12,64,156,32,15,00,349,,24,59,003,21*73
$GPGSV,2,2,06,25,44,224,28,29,,,28*47
$GPGLL,3433.91208,S,05824.02556,W,214901.00,A,A*63
$GPRMC,214902.00,A,3433.91273,S,05824.02533,W,1.609,,311014,,,A*7E
$GPVTG,,T,,M,1.609,N,2.980,K,A*2E
$GPGGA,214902.00,3433.91273,S,05824.02533,W,1,04,2.13,33.2,M,13.6,M,,*68
$GPGSA,A,3,25,02,12,24,,,,,,,,,8.84,2.13,8.57*0C
$GPGSV,2,1,06,02,54,087,22,12,64,156,32,15,00,349,,24,59,003,19*79
$GPGSV,2,2,06,25,44,224,27,29,,,28*48
$GPGLL,3433.91273,S,05824.02533,W,214902.00,A,A*6F
$GPRMC,214903.00,A,3433.91253,S,05824.02527,W,0.807,,311014,,,A*79
$GPVTG,,T,,M,0.807,N,1.495,K,A*25
$GPGGA,214903.00,3433.91253,S,05824.02527,W,1,04,2.13,33.9,M,13.6,M,,*65
$GPGSA,A,3,25,02,12,24,,,,,,,,,8.84,2.13,8.58*03
$GPGSV,2,1,06,02,54,087,22,12,64,156,32,15,00,349,,24,59,003,17*77
$GPGSV,2,2,06,25,44,224,27,29,,,28*48
$GPGLL,3433.91253,S,05824.02527,W,214903.00,A,A*69
$GPRMC,214904.00,A,3433.91248,S,05824.02558,W,1.412,,311014,,,A*75
$GPVTG,,T,,M,1.412,N,2.616,K,A*26
$GPGGA,214904.00,3433.91248,S,05824.02558,W,1,04,2.13,35.7,M,13.6,M,,*68
$GPGSA,A,3,25,02,12,24,,,,,,,,,8.84,2.13,8.58*03
$GPGSV,2,1,06,02,54,087,22,12,64,156,32,15,00,349,,24,59,003,16*76
$GPGSV,2,2,06,25,44,224,27,29,,,29*49
$GPGLL,3433.91248,S,05824.02558,W,214904.00,A,A*6C
$GPRMC,214905.00,A,3433.91231,S,05824.02616,W,1.525,,311014,,,A*76
$GPVTG,,T,,M,1.525,N,2.824,K,A*2C
$GPGGA,214905.00,3433.91231,S,05824.02616,W,1,04,2.13,38.0,M,13.6,M,,*64
$GPGSA,A,3,25,02,12,24,,,,,,,,,8.85,2.13,8.58*02
$GPGSV,2,1,06,02,54,087,22,12,64,156,32,15,00,349,,24,59,003,16*76
$GPGSV,2,2,06,25,44,224,28,29,,,28*47
$GPGLL,3433.91231,S,05824.02616,W,214905.00,A,A*6A
$GPRMC,214906.00,A,3433.91210,S,05824.02643,W,1.559,,311014,,,A*7D
$GPVTG,,T,,M,1.559,N,2.887,K,A*2E
$GPGGA,214906.00,3433.91210,S,05824.02643,W,1,04,2.13,38.5,M,13.6,M,,*61
$GPGSA,A,3,25,02,12,24,,,,,,,,,8.85,2.13,8.59*03
$GPGSV,2,1,06,02,54,087,22,12,64,156,32,15,00,349,,24,59,003,15*75
$GPGSV,2,2,06,25,44,224,27,29,,,29*49
$GPGLL,3433.91210,S,05824.02643,W,214906.00,A,A*6A
$GPRMC,214907.00,A,3433.91098,S,05824.02733,W,3.190,,311014,,,A*7B
$GPVTG,,T,,M,3.190,N,5.908,K,A*2C
$GPGGA,214907.00,3433.91098,S,05824.02733,W,1,04,2.13,41.9,M,13.6,M,,*66
$GPGSA,A,3,25,02,12,24,,,,,,,,,8.85,2.13,8.59*03
$GPGSV,2,1,06,02,54,087,22,12,64,156,32,15,00,349,,24,59,003,14*74
$GPGSV,2,2,06,25,44,224,27,29,,,29*49
$GPGLL,3433.91098,S,05824.02733,W,214907.00,A,A*6F
$GPRMC,214908.00,A,3433.91240,S,05824.02669,W,1.841,,311014,,,A*7A
$GPVTG,,T,,M,1.841,N,3.409,K,A*21
$GPGGA,214908.00,3433.91240,S,05824.02669,W,1,04,2.13,39.8,M,13.6,M,,*6E
$GPGSA,A,3,25,02,12,24,,,,,,,,,8.86,2.13,8.60*0A
$GPGSV,2,1,06,02,54,087,23,12,64,156,31,15,00,349,,24,59,003,13*71
$GPGSV,2,2,06,25,44,224,28,29,,,29*46
$GPGLL,3433.91240,S,05824.02669,W,214908.00,A,A*69
$GPRMC,214909.00,A,3433.91268,S,05824.02684,W,2.219,,311014,,,A*76
$GPVTG,,T,,M,2.219,N,4.110,K,A*2F
$GPGGA,214909.00,3433.91268,S,05824.02684,W,1,04,2.13,41.9,M,13.6,M,,*68
$GPGSA,A,3,25,02,12,24,,,,,,,,,8.86,2.13,8.60*0A
$GPGSV,2,1,06,02,54,087,23,12,64,156,31,15,00,349,,24,59,003,12*70
$GPGSV,2,2,06,25,44,224,28,29,,,29*46
$GPGLL,3433.91268,S,05824.02684,W,214909.00,A,A*61
$GPRMC,214910.00,A,3433.91269,S,05824.02731,W,2.019,,311014,,,A*72
$GPVTG,,T,,M,2.019,N,3.739,K,A*27
$GPGGA,214910.00,3433.91269,S,05824.02731,W,1,04,2.13,44.0,M,13.6,M,,*62
$GPGSA,A,3,25,02,12,24,,,,,,,,,8.86,2.13,8.60*0A
$GPGSV,2,1,06,02,54,087,23,12,64,156,31,15,00,349,,24,59,003,18*7A
$GPGSV,2,2,06,25,44,224,28,29,,,28*47
$GPGLL,3433.91269,S,05824.02731,W,214910.00,A,A*67
$GPRMC,214911.00,A,3433.91236,S,05824.02746,W,1.031,,311014,,,A*70
$GPVTG,,T,,M,1.031,N,1.910,K,A*29
$GPGGA,214911.00,3433.91236,S,05824.02746,W,1,04,2.13,44.5,M,13.6,M,,*6C
$GPGSA,A,3,25,02,12,24,,,,,,,,,8.87,2.13,8.61*0A
$GPGSV,2,1,06,02,54,087,25,12,64,156,32,15,00,349,,24,59,003,20*74
$GPGSV,2,2,06,25,44,224,27,29,,,27*47
$GPGLL,3433.91236,S,05824.02746,W,214911.00,A,A*6C
$GPRMC,214912.00,A,3433.91242,S,05824.02746,W,1.187,,311014,,,A*7C
$GPVTG,,T,,M,1.187,N,2.199,K,A*2F
$GPGGA,214912.00,3433.91242,S,05824.02746,W,1,04,2.13,44.7,M,13.6,M,,*6E
$GPGSA,A,3,25,02,12,24,,,,,,,,,8.87,2.13,8.61*0A
$GPGSV,2,1,06,02,54,087,25,12,64,156,31,15,00,349,,24,59,003,21*76
$GPGSV,2,2,06,25,44,224,26,29,,,28*49
$GPGLL,3433.91242,S,05824.02746,W,214912.00,A,A*6C
$GPRMC,214913.00,A,3433.91250,S,05824.02737,W,0.484,,311014,,,A*7F
$GPVTG,,T,,M,0.484,N,0.897,K,A*2D
$GPGGA,214913.00,3433.91250,S,05824.02737,W,1,04,2.13,44.4,M,13.6,M,,*69
$GPGSA,A,3,25,02,12,24,,,,,,,,,8.87,2.13,8.61*0A
$GPGSV,2,1,06,02,54,088,25,12,64,156,31,15,00,349,,24,59,003,22*7A
$GPGSV,2,2,06,25,44,224,26,29,,,28*49
$GPGLL,3433.91250,S,05824.02737,W,214913.00,A,A*68
$GPRMC,214914.00,A,3433.91243,S,05824.02748,W,0.408,,311014,,,A*76
$GPVTG,,T,,M,0.408,N,0.755,K,A*28
$GPGGA,214914.00,3433.91243,S,05824.02748,W,1,04,2.13,44.6,M,13.6,M,,*66
$GPGSA,A,3,25,02,12,24,,,,,,,,,8.88,2.13,8.62*06
$GPGSV,2,1,06,02,54,088,25,12,64,156,31,15,00,349,,24,59,003,22*7A
$GPGSV,2,2,06,25,44,224,27,29,,,28*48
$GPGLL,3433.91243,S,05824.02748,W,214914.00,A,A*65
$GPRMC,214915.00,A,3433.91221,S,05824.02753,W,0.516,,311014,,,A*77
$GPVTG,,T,,M,0.516,N,0.956,K,A*2B
$GPGGA,214915.00,3433.91221,S,05824.02753,W,1,04,2.13,43.9,M,13.6,M,,*61
$GPGSA,A,3,25,02,12,24,,,,,,,,,8.88,2.13,8.62*06
$GPGSV,2,1,06,02,54,088,25,12,64,156,32,15,00,349,,24,59,003,21*7A
$GPGSV,2,2,06,25,44,224,27,29,,,28*48
$GPGLL,3433.91221,S,05824.02753,W,214915.00,A,A*6A
$GPRMC,214916.00,A,3433.91153,S,05824.02814,W,2.523,,311014,,,A*7A
$GPVTG,,T,,M,2.523,N,4.672,K,A*22
$GPGGA,214916.00,3433.91153,S,05824.02814,W,1,04,2.13,45.4,M,13.6,M,,*63
$GPGSA,A,3,25,02,12,24,,,,,,,,,8.89,2.13,8.63*06
$GPGSV,2,1,06,02,54,088,24,12,64,156,32,15,00,349,,24,59,003,21*7B
$GPGSV,2,2,06,25,44,224,27,29,,,27*47
$GPGLL,3433.91153,S,05824.02814,W,214916.00,A,A*63
$GPRMC,214917.00,A,3433.91073,S,05824.02871,W,3.566,,311014,,,A*7B
$GPVTG,,T,,M,3.566,N,6.604,K,A*21
$GPGGA,214917.00,3433.91073,S,05824.02871,W,1,04,2.13,46.8,M,13.6,M,,*6D
$GPGSA,A,3,25,02,12,24,,,,,,,,,8.89,2.13,8.63*06
$GPGSV,2,1,06,02,54,088,23,12,64,156,31,15,00,349,,24,59,003,20*7E
$GPGSV,2,2,06,25,44,224,27,29,,,25*45
$GPGLL,3433.91073,S,05824.02871,W,214917.00,A,A*62
$GPRMC,214918.00,A,3433.91020,S,05824.02931,W,2.446,,311014,,,A*75
$GPVTG,,T,,M,2.446,N,4.530,K,A*25
$GPGGA,214918.00,3433.91020,S,05824.02931,W,1,04,2.13,49.0,M,13.6,M,,*66
$GPGSA,A,3,25,02,12,24,,,,,,,,,8.89,2.13,8.63*06
$GPGSV,2,1,06,02,54,088,22,12,64,156,31,15,00,349,,24,59,003,21*7E
$GPGSV,2,2,06,25,44,224,28,29,,,26*49
$GPGLL,3433.91020,S,05824.02931,W,214918.00,A,A*6E
$GPRMC,214919.00,A,3433.90986,S,05824.02979,W,1.117,,311014,,,A*7E
$GPVTG,,T,,M,1.117,N,2.069,K,A*28
$GPGGA,214919.00,3433.90986,S,05824.02979,W,1,04,2.13,50.3,M,13.6,M,,*64
$GPGSA,A,3,25,02,12,24,,,,,,,,,8.90,2.13,8.64*09
$GPGSV,2,1,06,02,54,088,22,12,64,156,31,15,00,349,,24,59,003,21*7E
$GPGSV,2,2,06,25,44,224,28,29,,,26*49
$GPGLL,3433.90986,S,05824.02979,W,214919.00,A,A*67
$GPRMC,214920.00,A,3433.90943,S,05824.03021,W,2.268,,311014,,,A*70
$GPVTG,,T,,M,2.268,N,4.201,K,A*2A
$GPGGA,214920.00,3433.90943,S,05824.03021,W,1,04,2.13,50.5,M,13.6,M,,*64
$GPGSA,A,3,25,02,12,24,,,,,,,,,8.90,2.13,8.64*09
$GPGSV,2,1,06,02,54,088,22,12,64,156,31,15,00,349,,24,59,003,20*7F
$GPGSV,2,2,06,25,44,224,28,29,,,27*48
$GPGLL,3433.90943,S,05824.03021,W,214920.00,A,A*61
$GPRMC,214921.00,A,3433.90869,S,05824.03081,W,3.629,,311014,,,A*72
$GPVTG,,T,,M,3.629,N,6.721,K,A*2F
$GPGGA,214921.00,3433.90869,S,05824.03081,W,1,04,2.13,52.3,M,13.6,M,,*62
$GPGSA,A,3,25,02,12,24,,,,,,,,,8.90,2.13,8.64*09
$GPGSV,2,1,06,02,54,088,23,12,64,156,31,15,00,349,,24,59,003,19*74
$GPGSV,2,2,06,25,44,224,28,29,,,26*49
$GPGLL,3433.90869,S,05824.03081,W,214921.00,A,A*63
$GPRMC,214922.00,A,3433.90871,S,05824.03090,W,1.925,,311014,,,A*79
$GPVTG,,T,,M,1.925,N,3.565,K,A*29
$GPGGA,214922.00,3433.90871,S,05824.03090,W,1,04,2.13,52.9,M,13.6,M,,*62
$GPGSA,A,3,25,02,12,24,,,,,,,,,8.91,2.13,8.65*09
$GPGSV,2,1,06,02,54,088,24,12,64,156,31,15,00,349,,24,59,003,17*7D
$GPGSV,2,2,06,25,44,224,27,29,,,24*44
$GPGLL,3433.90871,S,05824.03090,W,214922.00,A,A*69
$GPRMC,214923.00,A,3433.90798,S,05824.03128,W,1.866,,311014,,,A*74
$GPVTG,,T,,M,1.866,N,3.455,K,A*2D
$GPGGA,214923.00,3433.90798,S,05824.03128,W,1,04,2.13,54.5,M,13.6,M,,*63
$GPGSA,A,3,25,02,12,24,,,,,,,,,8.91,2.13,8.65*09
$GPGSV,2,1,06,02,54,088,25,12,64,155,32,15,00,349,,24,59,003,17*7C
$GPGSV,2,2,06,25,44,224,26,29,,,24*45
$GPGLL,3433.90798,S,05824.03128,W,214923.00,A,A*62
$GPRMC,214924.00,A,3433.90756,S,05824.03131,W,0.947,,311014,,,A*7A
$GPVTG,,T,,M,0.947,N,1.755,K,A*2F
$GPGGA,214924.00,3433.90756,S,05824.03131,W,1,04,2.13,54.0,M,13.6,M,,*6B
$GPGSA,A,3,25,02,12,24,,,,,,,,,8.91,2.13,8.66*0A
$GPGSV,2,1,06,02,54,088,26,12,64,155,32,15,00,349,,24,59,003,20*7B
$GPGSV,2,2,06,25,44,224,26,29,,,22*43
$GPGLL,3433.90756,S,05824.03131,W,214924.00,A,A*6F
$GPRMC,214925.00,A,3433.90749,S,05824.03111,W,1.239,,311014,,,A*74
$GPVTG,,T,,M,1.239,N,2.296,K,A*25
$GPGGA,214925.00,3433.90749,S,05824.03111,W,1,04,2.13,53.4,M,13.6,M,,*65
$GPGSA,A,3,25,02,12,24,,,,,,,,,8.92,2.13,8.66*09
$GPGSV,2,1,06,02,54,088,26,12,64,155,32,15,00,349,,24,59,003,22*79
$GPGSV,2,2,06,25,44,224,26,29,,,21*40
$GPGLL,3433.90749,S,05824.03111,W,214925.00,A,A*62
$GPRMC,214926.00,A,3433.90686,S,05824.03133,W,2.607,,311014,,,A*7F
$GPVTG,,T,,M,2.607,N,4.828,K,A*26
$GPGGA,214926.00,3433.90686,S,05824.03133,W,1,04,2.13,53.7,M,13.6,M,,*67
$GPGSA,A,3,25,02,12,24,,,,,,,,,8.92,2.13,8.66*09
$GPGSV,2,1,06,02,54,088,26,12,64,155,33,15,00,350,,24,59,003,19*78
$GPGSV,2,2,06,25,44,224,26,29,,,22*43
$GPGLL,3433.90686,S,05824.03133,W,214926.00,A,A*63
$GPRMC,214927.00,A,3433.90649,S,05824.03134,W,1.061,,311014,,,A*7F
$GPVTG,,T,,M,1.061,N,1.965,K,A*2E
$GPGGA,214927.00,3433.90649,S,05824.03134,W,1,04,2.13,53.5,M,13.6,M,,*60
$GPGSA,A,3,25,02,12,24,,,,,,,,,8.93,2.13,8.67*09
$GPGSV,2,1,06,02,54,088,27,12,64,155,32,15,00,350,,24,59,003,16*77
$GPGSV,2,2,06,25,44,224,26,29,,,25*44
$GPGLL,3433.90649,S,05824.03134,W,214927.00,A,A*66
$GPRMC,214928.00,A,3433.90710,S,05824.03095,W,2.070,,311014,,,A*74
$GPVTG,,T,,M,2.070,N,3.834,K,A*2A
$GPGGA,214928.00,3433.90710,S,05824.03095,W,1,04,2.13,53.6,M,13.6,M,,*6B
$GPGSA,A,3,25,02,12,24,,,,,,,,,8.93,2.13,8.67*09
$GPGSV,2,1,06,02,54,088,26,12,64,155,32,15,00,350,,24,59,003,15*75
$GPGSV,2,2,06,25,44,224,27,29,,,25*45
$GPGLL,3433.90710,S,05824.03095,W,214928.00,A,A*6E
$GPRMC,214929.00,A,3433.90669,S,05824.03123,W,0.315,,311014,,,A*74
$GPVTG,,T,,M,0.315,N,0.583,K,A*2A
$GPGGA,214929.00,3433.90669,S,05824.03123,W,1,04,2.13,54.3,M,13.6,M,,*6B
$GPGSA,A,3,25,02,12,24,,,,,,,,,8.93,2.13,8.67*09
$GPGSV,2,1,06,02,54,088,27,12,64,155,32,15,00,350,,24,59,003,13*72
$GPGSV,2,2,06,25,44,224,27,29,,,26*46
$GPGLL,3433.90669,S,05824.03123,W,214929.00,A,A*6C
$GPRMC,214930.00,A,3433.90786,S,05824.02772,W,0.868,,311014,,,A*7E
$GPVTG,,T,,M,0.868,N,1.607,K,A*25
$GPGGA,214930.00,3433.90786,S,05824.02772,W,1,03,6.40,25.4,M,13.6,M,,*64
$GPGSA,A,2,25,02,12,,,,,,,,,,6.47,6.40,1.00*03
$GPGSV,2,1,06,02,54,088,28,12,64,155,32,15,00,350,,24,59,003,09*76
$GPGSV,2,2,06,25,44,224,27,29,,,26*46
$GPGLL,3433.90786,S,05824.02772,W,214930.00,A,A*67
$GPRMC,214931.00,A,3433.90852,S,05824.02680,W,0.378,,311014,,,A*7F
$GPVTG,,T,,M,0.378,N,0.700,K,A*28
$GPGGA,214931.00,3433.90852,S,05824.02680,W,1,03,6.40,16.1,M,13.6,M,,*6A
$GPGSA,A,2,25,02,12,,,,,,,,,,6.48,6.40,1.00*0C
$GPGSV,2,1,06,02,54,088,28,12,64,155,32,15,00,350,,24,59,003,09*76
$GPGSV,2,2,06,25,44,224,28,29,,,26*49
$GPGLL,3433.90852,S,05824.02680,W,214931.00,A,A*6C
$GPRMC,214932.00,A,3433.90893,S,05824.02623,W,1.688,,311014,,,A*73
$GPVTG,,T,,M,1.688,N,3.127,K,A*23
$GPGGA,214932.00,3433.90893,S,05824.02623,W,1,03,6.40,13.7,M,13.6,M,,*6E
$GPGSA,A,2,25,02,12,,,,,,,,,,6.48,6.40,1.00*0C
$GPGSV,2,1,06,02,54,088,28,12,64,155,32,15,00,350,,24,59,003,08*77
$GPGSV,2,2,06,25,44,224,27,29,,,27*47
$GPGLL,3433.90893,S,05824.02623,W,214932.00,A,A*6B
$GPRMC,214933.00,A,3433.90893,S,05824.02603,W,3.186,,311014,,,A*7B
$GPVTG,,T,,M,3.186,N,5.901,K,A*22
$GPGGA,214933.00,3433.90893,S,05824.02603,W,1,03,6.41,12.3,M,13.6,M,,*69
$GPGSA,A,2,25,02,12,,,,,,,,,,6.48,6.41,1.00*0D
$GPGSV,2,1,06,02,54,088,28,12,64,155,32,15,00,350,,24,59,003,08*77
$GPGSV,2,2,06,25,44,224,27,29,,,27*47
$GPGLL,3433.90893,S,05824.02603,W,214933.00,A,A*68
$GPRMC,214934.00,A,3433.91028,S,05824.02651,W,1.796,,311014,,,A*77
$GPVTG,,T,,M,1.796,N,3.326,K,A*2E
$GPGGA,214934.00,3433.91028,S,05824.02651,W,1,04,2.13,12.4,M,13.6,M,,*63
$GPGSA,A,3,25,02,12,24,,,,,,,,,8.95,2.13,8.69*01
$GPGSV,2,1,06,02,54,088,28,12,64,155,32,15,00,350,,24,59,003,08*77
$GPGSV,2,2,06,25,44,224,26,29,,,28*49
$GPGLL,3433.91028,S,05824.02651,W,214934.00,A,A*61
$GPRMC,214935.00,A,3433.91118,S,05824.02663,W,0.718,,311014,,,A*72
$GPVTG,,T,,M,0.718,N,1.329,K,A*24
$GPGGA,214935.00,3433.91118,S,05824.02663,W,1,04,2.13,10.8,M,13.6,M,,*6F
$GPGSA,A,3,25,02,12,24,,,,,,,,,8.95,2.13,8.70*09
$GPGSV,2,1,06,02,54,088,28,12,64,155,32,15,00,350,,24,59,003,08*77
$GPGSV,2,2,06,25,44,224,26,29,,,27*46
$GPGLL,3433.91118,S,05824.02663,W,214935.00,A,A*63
$GPRMC,214936.00,A,3433.91156,S,05824.02663,W,1.322,,311014,,,A*77
$GPVTG,,T,,M,1.322,N,2.448,K,A*2B
$GPGGA,214936.00,3433.91156,S,05824.02663,W,1,04,2.13,10.0,M,13.6,M,,*6E
$GPGSA,A,3,25,02,12,24,,,,,,,,,8.96,2.13,8.70*0A
$GPGSV,2,1,06,02,54,088,28,12,64,155,32,15,00,350,,24,59,003,08*77
$GPGSV,2,2,06,25,44,224,26,29,,,27*46
$GPGLL,3433.91156,S,05824.02663,W,214936.00,A,A*6A
$GPRMC,214937.00,A,3433.91269,S,05824.02601,W,2.634,,311014,,,A*7C
$GPVTG,,T,,M,2.634,N,4.877,K,A*2C
$GPGGA,214937.00,3433.91269,S,05824.02601,W,1,03,6.42,9.4,M,13.6,M,,*5F
$GPGSA,A,2,25,02,12,,,,,,,,,,6.50,6.42,1.00*07
$GPGSV,2,1,06,02,54,088,28,12,64,155,32,15,00,350,,24,59,003,*7F
$GPGSV,2,2,06,25,44,224,27,29,,,27*47
$GPGLL,3433.91269,S,05824.02601,W,214937.00,A,A*60
$GPRMC,214938.00,A,3433.91304,S,05824.02557,W,2.384,,311014,,,A*77
$GPVTG,,T,,M,2.384,N,4.415,K,A*2A
$GPGGA,214938.00,3433.91304,S,05824.02557,W,1,03,6.42,7.6,M,13.6,M,,*56
$GPGSA,A,2,25,02,12,,,,,,,,,,6.50,6.42,1.00*07
$GPGSV,2,1,06,02,54,088,28,12,64,155,31,15,00,350,,24,59,003,*7C
$GPGSV,2,2,06,25,44,224,27,29,,,27*47
$GPGLL,3433.91304,S,05824.02557,W,214938.00,A,A*65
$GPRMC,214939.00,A,3433.91331,S,05824.02532,W,0.820,,311014,,,A*74
$GPVTG,,T,,M,0.820,N,1.519,K,A*25
$GPGGA,214939.00,3433.91331,S,05824.02532,W,1,03,6.43,6.1,M,13.6,M,,*55
$GPGSA,A,2,25,02,12,,,,,,,,,,6.50,6.43,1.00*06
$GPGSV,2,1,06,02,54,088,28,12,64,155,32,15,00,350,,24,59,003,08*77
$GPGSV,2,2,06,25,44,224,27,29,,,27*47
$GPGLL,3433.91331,S,05824.02532,W,214939.00,A,A*61
$GPRMC,214940.00,A,3433.91413,S,05824.02477,W,1.081,,311014,,,A*7F
$GPVTG,,T,,M,1.081,N,2.002,K,A*2B
$GPGGA,214940.00,3433.91413,S,05824.02477,W,1,04,6.43,4.4,M,13.6,M,,*5C
$GPGSA,A,2,25,02,12,24,,,,,,,,,6.51,6.43,1.00*01
$GPGSV,2,1,06,02,54,088,28,12,64,155,32,15,00,350,,24,59,003,12*7C
$GPGSV,2,2,06,25,44,224,27,29,,,27*47
$GPGLL,3433.91413,S,05824.02477,W,214940.00,A,A*68
$GPRMC,214941.00,A,3433.91463,S,05824.02468,W,2.714,,311014,,,A*7F
$GPVTG,,T,,M,2.714,N,5.026,K,A*22
$GPGGA,214941.00,3433.91463,S,05824.02468,W,1,04,6.43,4.6,M,13.6,M,,*56
$GPGSA,A,2,25,02,12,24,,,,,,,,,6.51,6.43,1.00*01
$GPGSV,2,1,06,02,54,088,28,12,64,155,32,15,00,350,,24,59,003,16*78
$GPGSV,2,2,06,25,44,224,26,29,,,27*46
$GPGLL,3433.91463,S,05824.02468,W,214941.00,A,A*60
$GPRMC,214942.00,A,3433.91498,S,05824.02496,W,2.164,,311014,,,A*78
$GPVTG,,T,,M,2.164,N,4.007,K,A*21
$GPGGA,214942.00,3433.91498,S,05824.02496,W,1,04,2.13,6.4,M,13.6,M,,*51
$GPGSA,A,3,25,02,12,24,,,,,,,,,8.98,2.13,8.72*06
$GPGSV,2,1,06,02,54,088,29,12,64,155,31,15,00,350,,24,59,003,16*7A
$GPGSV,2,2,06,25,44,224,28,29,,,28*47
$GPGLL,3433.91498,S,05824.02496,W,214942.00,A,A*66
$GPRMC,214943.00,A,3433.91503,S,05824.02562,W,4.244,308.40,311014,,,A*66
$GPVTG,308.40,T,,M,4.244,N,7.860,K,A*3D
$GPGGA,214943.00,3433.91503,S,05824.02562,W,1,04,2.13,10.8,M,13.6,M,,*62
$GPGSA,A,3,25,02,12,24,,,,,,,,,8.98,2.13,8.73*07
$GPGSV,2,1,06,02,54,088,29,12,64,155,30,15,00,350,,24,59,003,16*7B
$GPGSV,2,2,06,25,44,224,28,29,,,28*47
$GPGLL,3433.91503,S,05824.02562,W,214943.00,A,A*6E
$GPRMC,214944.00,A,3433.91571,S,05824.02501,W,0.086,,311014,,,A*78
$GPVTG,,T,,M,0.086,N,0.159,K,A*20
$GPGGA,214944.00,3433.91571,S,05824.02501,W,1,04,6.44,4.0,M,13.6,M,,*5E
$GPGSA,A,2,25,02,12,24,,,,,,,,,6.52,6.44,1.00*05
$GPGSV,2,1,06,02,54,088,28,12,64,155,31,15,00,350,,24,59,003,16*7B
$GPGSV,2,2,06,25,44,224,28,29,,,29*46
$GPGLL,3433.91571,S,05824.02501,W,214944.00,A,A*69
$GPRMC,214945.00,A,3433.91660,S,05824.02490,W,1.725,,311014,,,A*7C
$GPVTG,,T,,M,1.725,N,3.195,K,A*2C
$GPGGA,214945.00,3433.91660,S,05824.02490,W,1,04,6.44,2.9,M,13.6,M,,*5A
$GPGSA,A,2,25,02,12,24,,,,,,,,,6.52,6.44,1.00*05
$GPGSV,2,1,06,02,54,088,29,12,64,155,31,15,00,350,,24,59,003,17*7B
$GPGSV,2,2,06,25,44,224,28,29,,,29*46
$GPGLL,3433.91660,S,05824.02490,W,214945.00,A,A*62
$GPRMC,214946.00,A,3433.91719,S,05824.02484,W,3.002,244.57,311014,,,A*6B
$GPVTG,244.57,T,,M,3.002,N,5.559,K,A*30
$GPGGA,214946.00,3433.91719,S,05824.02484,W,1,04,6.45,1.6,M,13.6,M,,*5E
$GPGSA,A,2,25,02,12,24,,,,,,,,,6.53,6.45,1.00*05
$GPGSV,2,1,06,02,54,088,29,12,64,155,32,15,00,350,,24,59,003,19*76
$GPGSV,2,2,06,25,44,224,30,29,,,30*47
$GPGLL,3433.91719,S,05824.02484,W,214946.00,A,A*6B
$GPRMC,214947.00,A,3433.91744,S,05824.02468,W,2.049,,311014,,,A*70
$GPVTG,,T,,M,2.049,N,3.795,K,A*24
$GPGGA,214947.00,3433.91744,S,05824.02468,W,1,04,6.45,1.1,M,13.6,M,,*52
$GPGSA,A,2,25,02,12,24,,,,,,,,,6.53,6.45,1.00*05
$GPGSV,2,1,06,02,54,088,29,12,64,155,32,15,00,350,,24,59,003,18*77
$GPGSV,2,2,06,25,44,224,30,29,,,29*4F
$GPGLL,3433.91744,S,05824.02468,W,214947.00,A,A*60
$GPRMC,214948.00,A,3433.91769,S,05824.02450,W,0.148,,311014,,,A*79
$GPVTG,,T,,M,0.148,N,0.273,K,A*28
$GPGGA,214948.00,3433.91769,S,05824.02450,W,1,04,6.45,-0.6,M,13.6,M,,*72
$GPGSA,A,2,25,02,12,24,,,,,,,,,6.53,6.45,1.00*05
$GPGSV,2,1,06,02,54,088,28,12,64,155,31,15,00,350,,24,59,003,18*75
$GPGSV,2,2,06,25,44,224,31,29,,,28*4F
$GPGLL,3433.91769,S,05824.02450,W,214948.00,A,A*6B
$GPRMC,214949.00,A,3433.91839,S,05824.02399,W,0.355,,311014,,,A*7E
$GPVTG,,T,,M,0.355,N,0.657,K,A*24
$GPGGA,214949.00,3433.91839,S,05824.02399,W,1,04,6.46,-0.9,M,13.6,M,,*77
$GPGSA,A,2,25,02,12,24,,,,,,,,,6.54,6.46,1.00*01
$GPGSV,2,1,06,02,54,088,28,12,64,155,31,15,00,350,,24,59,003,18*75
$GPGSV,2,2,06,25,44,224,31,29,,,28*4F
$GPGLL,3433.91839,S,05824.02399,W,214949.00,A,A*62
$GPRMC,214950.00,A,3433.91815,S,05824.02500,W,1.593,,311014,,,A*73
$GPVTG,,T,,M,1.593,N,2.950,K,A*23
$GPGGA,214950.00,3433.91815,S,05824.02500,W,1,04,2.13,2.8,M,13.6,M,,*5D
$GPGSA,A,3,25,02,12,24,,,,,,,,,9.01,2.13,8.75*00
$GPGSV,2,1,06,02,54,088,28,12,64,155,31,15,00,350,,24,59,003,18*75
$GPGSV,2,2,06,25,44,224,30,29,,,28*4E
$GPGLL,3433.91815,S,05824.02500,W,214950.00,A,A*62
$GPRMC,214951.00,A,3433.91813,S,05824.02445,W,1.592,,311014,,,A*75
$GPVTG,,T,,M,1.592,N,2.949,K,A*2A
$GPGGA,214951.00,3433.91813,S,05824.02445,W,1,04,2.13,4.8,M,13.6,M,,*5C
$GPGSA,A,3,25,02,12,24,,,,,,,,,9.01,2.13,8.76*03
$GPGSV,2,1,06,02,54,088,27,12,64,155,32,15,00,350,,24,59,003,19*78
$GPGSV,2,2,06,25,44,224,30,29,,,28*4E
$GPGLL,3433.91813,S,05824.02445,W,214951.00,A,A*65
$GPRMC,214952.00,A,3433.91773,S,05824.02442,W,1.128,,311014,,,A*7D
$GPVTG,,T,,M,1.128,N,2.089,K,A*2A
$GPGGA,214952.00,3433.91773,S,05824.02442,W,1,04,2.13,6.9,M,13.6,M,,*52
$GPGSA,A,3,25,02,12,24,,,,,,,,,9.02,2.13,8.76*00
$GPGSV,2,1,06,02,54,088,27,12,64,155,32,15,00,350,,24,59,003,20*72
$GPGSV,2,2,06,25,44,224,31,29,,,28*4F
$GPGLL,3433.91773,S,05824.02442,W,214952.00,A,A*68
$GPRMC,214953.00,A,3433.91764,S,05824.02421,W,1.836,,311014,,,A*79
$GPVTG,,T,,M,1.836,N,3.400,K,A*28
$GPGGA,214953.00,3433.91764,S,05824.02421,W,1,04,2.13,8.6,M,13.6,M,,*51
$GPGSA,A,3,25,02,12,24,,,,,,,,,9.02,2.13,8.76*00
$GPGSV,2,1,06,02,54,088,26,12,64,155,32,15,00,350,,24,59,003,21*72
$GPGSV,2,2,06,25,44,224,31,29,,,29*4E
$GPGLL,3433.91764,S,05824.02421,W,214953.00,A,A*6A
$GPRMC,214954.00,A,3433.91850,S,05824.02513,W,4.391,,311014,,,A*75
$GPVTG,,T,,M,4.391,N,8.131,K,A*27
$GPGGA,214954.00,3433.91850,S,05824.02513,W,1,04,2.13,14.9,M,13.6,M,,*6C
$GPGSA,A,3,25,02,12,24,,,,,,,,,9.02,2.13,8.77*01
$GPGSV,2,1,06,02,54,088,25,12,64,155,32,15,00,350,,24,59,003,22*72
$GPGSV,2,2,06,25,44,224,31,29,,,28*4F
$GPGLL,3433.91850,S,05824.02513,W,214954.00,A,A*65
$GPRMC,214955.00,A,3433.91864,S,05824.02555,W,2.374,,311014,,,A*7C
$GPVTG,,T,,M,2.374,N,4.396,K,A*29
$GPGGA,214955.00,3433.91864,S,05824.02555,W,1,04,2.13,16.9,M,13.6,M,,*6A
$GPGSA,A,3,25,02,12,24,,,,,,,,,9.03,2.13,8.77*00
$GPGSV,2,1,06,02,54,088,25,12,64,155,32,15,00,350,,24,59,003,21*71
$GPGSV,2,2,06,25,44,224,31,29,,,28*4F
$GPGLL,3433.91864,S,05824.02555,W,214955.00,A,A*61
$GPRMC,214956.00,A,3433.91811,S,05824.02587,W,1.244,,311014,,,A*73
$GPVTG,,T,,M,1.244,N,2.303,K,A*22
$GPGGA,214956.00,3433.91811,S,05824.02587,W,1,04,2.13,19.1,M,13.6,M,,*63
$GPGSA,A,3,25,02,12,24,,,,,,,,,9.03,2.13,8.78*0F
$GPGSV,2,1,06,02,54,088,26,12,64,155,32,15,00,350,,24,59,003,22*71
$GPGSV,2,2,06,25,44,224,32,29,,,28*4C
$GPGLL,3433.91811,S,05824.02587,W,214956.00,A,A*6F
$GPRMC,214957.00,A,3433.91754,S,05824.02621,W,2.341,,311014,,,A*74
$GPVTG,,T,,M,2.341,N,4.336,K,A*25
$GPGGA,214957.00,3433.91754,S,05824.02621,W,1,04,2.13,21.1,M,13.6,M,,*68
$GPGSA,A,3,25,02,12,24,,,,,,,,,9.03,2.13,8.78*0F
$GPGSV,2,1,06,02,54,088,26,12,64,155,33,15,00,350,,24,59,003,22*70
$GPGSV,2,2,06,25,44,224,31,29,,,28*4F
$GPGLL,3433.91754,S,05824.02621,W,214957.00,A,A*6F
$GPRMC,214958.00,A,3433.91758,S,05824.02632,W,1.361,,311014,,,A*74
$GPVTG,,T,,M,1.361,N,2.520,K,A*23
$GPGGA,214958.00,3433.91758,S,05824.02632,W,1,04,2.13,22.5,M,13.6,M,,*6E
$GPGSA,A,3,25,02,12,24,,,,,,,,,9.04,2.13,8.78*08
$GPGSV,2,1,06,02,54,088,25,12,64,155,33,15,00,350,,24,59,003,22*73
$GPGSV,2,2,06,25,44,224,31,29,,,29*4E
$GPGLL,3433.91758,S,05824.02632,W,214958.00,A,A*6E
$GPRMC,214959.00,A,3433.91755,S,05824.02651,W,1.362,,311014,,,A*7E
$GPVTG,,T,,M,1.362,N,2.523,K,A*23
$GPGGA,214959.00,3433.91755,S,05824.02651,W,1,04,2.13,24.0,M,13.6,M,,*64
$GPGSA,A,3,25,02,12,24,,,,,,,,,9.04,2.13,8.79*09
$GPGSV,2,1,06,02,54,088,24,12,64,155,34,15,00,350,,24,59,003,23*74
$GPGSV,2,2,06,25,44,224,30,29,,,28*4E
$GPGLL,3433.91755,S,05824.02651,W,214959.00,A,A*67
$GPRMC,215000.00,A,3433.91734,S,05824.02671,W,0.976,,311014,,,A*71
$GPVTG,,T,,M,0.976,N,1.808,K,A*2A
$GPGGA,215000.00,3433.91734,S,05824.02671,W,1,04,2.13,26.1,M,13.6,M,,*66
$GPGSA,A,3,25,02,12,24,,,,,,,,,9.04,2.13,8.79*09
$GPGSV,2,1,06,02,54,088,23,12,64,155,33,15,00,350,,24,59,003,22*75
$GPGSV,2,2,06,25,44,224,30,29,,,28*4E
$GPGLL,3433.91734,S,05824.02671,W,215000.00,A,A*66
$GPRMC,215001.00,A,3433.91746,S,05824.02677,W,1.042,,311014,,,A*7C
$GPVTG,,T,,M,1.042,N,1.930,K,A*2F
$GPGGA,215001.00,3433.91746,S,05824.02677,W,1,04,2.13,27.7,M,13.6,M,,*63
$GPGSA,A,3,25,02,12,24,,,,,,,,,9.05,2.13,8.79*08
$GPGSV,2,1,06,02,54,088,23,12,64,155,33,15,00,350,,24,59,003,23*74
$GPGSV,2,2,06,25,44,224,29,29,,,28*46
$GPGLL,3433.91746,S,05824.02677,W,215001.00,A,A*64
$GPRMC,215002.00,A,3433.91749,S,05824.02672,W,1.328,,311014,,,A*7A
$GPVTG,,T,,M,1.328,N,2.460,K,A*2B
$GPGGA,215002.00,3433.91749,S,05824.02672,W,1,04,2.13,28.3,M,13.6,M,,*61
$GPGSA,A,3,25,02,12,24,,,,,,,,,9.05,2.13,8.80*0E
$GPGSV,2,1,06,02,54,088,23,12,64,155,33,15,00,350,,24,59,003,23*74
$GPGSV,2,2,06,25,44,224,28,29,,,28*47
$GPGLL,3433.91749,S,05824.02672,W,215002.00,A,A*6D
$GPRMC,215003.00,A,3433.91700,S,05824.02730,W,2.278,,311014,,,A*76
$GPVTG,,T,,M,2.278,N,4.220,K,A*28
$GPGGA,215003.00,3433.91700,S,05824.02730,W,1,05,1.99,29.8,M,13.6,M,,*60
$GPGSA,A,3,25,02,12,29,24,,,,,,,,6.65,1.99,6.34*0C
$GPGSV,2,1,06,02,54,088,22,12,64,155,33,15,00,350,,24,59,003,24*72
$GPGSV,2,2,06,25,44,224,30,29,33,294,28*71
$GPGLL,3433.91700,S,05824.02730,W,215003.00,A,A*66
$GPRMC,215004.00,A,3433.91696,S,05824.02801,W,1.925,,311014,,,A*72
$GPVTG,,T,,M,1.925,N,3.564,K,A*28
$GPGGA,215004.00,3433.91696,S,05824.02801,W,1,05,1.99,33.2,M,13.6,M,,*65
$GPGSA,A,3,25,02,12,29,24,,,,,,,,6.65,1.99,6.35*0D
$GPGSV,2,1,06,02,54,088,21,12,64,155,33,15,00,350,,24,59,003,23*76
$GPGSV,2,2,06,25,44,224,29,29,33,294,28*79
$GPGLL,3433.91696,S,05824.02801,W,215004.00,A,A*62
$GPRMC,215005.00,A,3433.91691,S,05824.02840,W,1.803,,311014,,,A*74
$GPVTG,,T,,M,1.803,N,3.339,K,A*23
$GPGGA,215005.00,3433.91691,S,05824.02840,W,1,05,2.00,34.2,M,13.6,M,,*62
$GPGSA,A,3,25,02,12,29,24,,,,,,,,6.65,2.00,6.35*0E
$GPGSV,2,1,06,02,54,088,22,12,64,155,33,15,00,350,,24,59,003,23*75
$GPGSV,2,2,06,25,44,224,29,29,33,294,28*79
$GPGLL,3433.91691,S,05824.02840,W,215005.00,A,A*61
$GPRMC,215006.00,A,3433.91666,S,05824.02827,W,1.633,,311014,,,A*73
$GPVTG,,T,,M,1.633,N,3.025,K,A*20
$GPGGA,215006.00,3433.91666,S,05824.02827,W,1,05,2.00,34.7,M,13.6,M,,*6D
$GPGSA,A,3,25,02,12,29,24,,,,,,,,6.66,2.00,6.35*0D
$GPGSV,2,1,06,02,54,088,24,12,64,155,33,15,00,350,,24,59,003,23*73
$GPGSV,2,2,06,25,44,224,27,29,33,294,27*78
$GPGLL,3433.91666,S,05824.02827,W,215006.00,A,A*6B
$GPRMC,215007.00,A,3433.91639,S,05824.02822,W,0.834,,311014,,,A*75
$GPVTG,,T,,M,0.834,N,1.545,K,A*29
$GPGGA,215007.00,3433.91639,S,05824.02822,W,1,05,2.00,35.4,M,13.6,M,,*61
$GPGSA,A,3,25,02,12,29,24,,,,,,,,6.66,2.00,6.35*0D
$GPGSV,2,1,06,02,54,088,24,12,64,155,34,15,00,350,,24,59,003,23*74
$GPGSV,2,2,06,25,44,224,27,29,33,294,26*79
$GPGLL,3433.91639,S,05824.02822,W,215007.00,A,A*65
$GPRMC,215008.00,A,3433.91623,S,05824.02799,W,0.789,,311014,,,A*77
$GPVTG,,T,,M,0.789,N,1.462,K,A*24
$GPGGA,215008.00,3433.91623,S,05824.02799,W,1,05,2.00,35.1,M,13.6,M,,*6F
$GPGSA,A,3,25,02,12,29,24,,,,,,,,6.66,2.00,6.36*0E
$GPGSV,2,1,06,02,54,088,26,12,64,155,34,15,00,350,,24,59,003,25*70
$GPGSV,2,2,06,25,44,224,29,29,33,294,26*77
$GPGLL,3433.91623,S,05824.02799,W,215008.00,A,A*6E
$GPRMC,215009.00,A,3433.91618,S,05824.02773,W,0.865,,311014,,,A*77
$GPVTG,,T,,M,0.865,N,1.601,K,A*2E
$GPGGA,215009.00,3433.91618,S,05824.02773,W,1,05,2.00,33.9,M,13.6,M,,*6C
$GPGSA,A,3,25,02,12,29,24,,,,,,,,6.67,2.00,6.36*0F
$GPGSV,2,1,06,02,54,088,26,12,64,155,33,15,00,350,,24,59,003,27*75
$GPGSV,2,2,06,25,44,224,30,29,33,294,27*7E
$GPGLL,3433.91618,S,05824.02773,W,215009.00,A,A*63
$GPRMC,215010.00,A,3433.91615,S,05824.02757,W,0.846,,311014,,,A*75
$GPVTG,,T,,M,0.846,N,1.568,K,A*23
