$GPRMC,222239.00,A,3856.15223,S,06800.46917,W,0.575,,271114,,,A*7E
$GPVTG,,T,,M,0.575,N,1.065,K,A*26
$GPGGA,222239.00,3856.15223,S,06800.46917,W,1,04,3.43,274.4,M,22.5,M,,*55
$GPGSA,A,3,29,31,25,12,,,,,,,,,5.03,3.43,3.68*00
$GPGSV,2,1,06,02,07,137,07,05,21,106,11,12,21,058,18,25,61,065,27*78
$GPGSV,2,2,06,29,69,171,36,31,46,263,25*79
$GPGLL,3856.15223,S,06800.46917,W,222239.00,A,A*60
$GPRMC,222240.00,A,3856.15251,S,06800.46914,W,0.740,,271114,,,A*72
$GPVTG,,T,,M,0.740,N,1.370,K,A*25
$GPGGA,222240.00,3856.15251,S,06800.46914,W,1,05,3.42,274.8,M,22.5,M,,*51
$GPGSA,A,3,29,31,05,25,12,,,,,,,,5.03,3.42,3.68*04
$GPGSV,2,1,06,02,07,137,,05,21,106,16,12,21,058,15,25,61,065,25*77
$GPGSV,2,2,06,29,69,171,34,31,46,263,23*7D
$GPGLL,3856.15251,S,06800.46914,W,222240.00,A,A*68
$GPRMC,222241.00,A,3856.15275,S,06800.46909,W,0.733,,271114,,,A*7D
$GPVTG,,T,,M,0.733,N,1.358,K,A*2B
$GPGGA,222241.00,3856.15275,S,06800.46909,W,1,05,3.42,275.2,M,22.5,M,,*51
$GPGSA,A,3,29,31,05,25,12,,,,,,,,5.03,3.42,3.68*04
$GPGSV,2,1,06,02,06,137,,05,21,106,14,12,21,058,14,25,61,065,26*76
$GPGSV,2,2,06,29,69,171,34,31,46,263,23*7D
$GPGLL,3856.15275,S,06800.46909,W,222241.00,A,A*63
$GPRMC,222242.00,A,3856.15292,S,06800.46916,W,0.700,,271114,,,A*79
$GPVTG,,T,,M,0.700,N,1.296,K,A*28
$GPGGA,222242.00,3856.15292,S,06800.46916,W,1,05,3.42,275.7,M,22.5,M,,*50
$GPGSA,A,3,29,31,05,25,12,,,,,,,,5.03,3.42,3.68*04
$GPGSV,2,1,06,02,06,137,,05,21,106,11,12,21,058,14,25,61,065,26*73
$GPGSV,2,2,06,29,69,171,33,31,46,263,23*7A
$GPGLL,3856.15292,S,06800.46916,W,222242.00,A,A*67
$GPRMC,222243.00,A,3856.15310,S,06800.46901,W,0.522,,271114,,,A*77
$GPVTG,,T,,M,0.522,N,0.967,K,A*2E
$GPGGA,222243.00,3856.15310,S,06800.46901,W,1,05,3.42,276.0,M,22.5,M,,*58
$GPGSA,A,3,29,31,05,25,12,,,,,,,,5.02,3.42,3.68*05
$GPGSV,2,1,06,02,06,137,,05,21,106,11,12,21,058,15,25,61,065,26*72
$GPGSV,2,2,06,29,69,171,33,31,46,263,23*7A
$GPGLL,3856.15310,S,06800.46901,W,222243.00,A,A*6B
$GPRMC,222244.00,A,3856.15299,S,06800.46896,W,0.169,,271114,,,A*74
$GPVTG,,T,,M,0.169,N,0.314,K,A*2B
$GPGGA,222244.00,3856.15299,S,06800.46896,W,1,05,3.42,276.4,M,22.5,M,,*54
$GPGSA,A,3,29,31,05,25,12,,,,,,,,5.02,3.42,3.68*05
$GPGSV,2,1,06,02,06,137,,05,21,106,11,12,21,058,16,25,61,065,25*72
$GPGSV,2,2,06,29,69,171,33,31,46,263,24*7D
$GPGLL,3856.15299,S,06800.46896,W,222244.00,A,A*63
$GPRMC,222245.00,A,3856.15291,S,06800.46868,W,0.199,,271114,,,A*73
$GPVTG,,T,,M,0.199,N,0.369,K,A*2E
$GPGGA,222245.00,3856.15291,S,06800.46868,W,1,05,1.82,276.2,M,22.5,M,,*54
$GPGSA,A,3,29,31,05,25,12,,,,,,,,2.95,1.82,2.32*0C
$GPGSV,2,1,06,02,06,137,,05,21,106,12,12,21,058,15,25,61,065,25*72
$GPGSV,2,2,06,29,69,171,33,31,46,263,23*7A
$GPGLL,3856.15291,S,06800.46868,W,222245.00,A,A*6B
$GPRMC,222246.00,A,3856.15294,S,06800.46821,W,0.525,,271114,,,A*7B
$GPVTG,,T,,M,0.525,N,0.972,K,A*2D
$GPGGA,222246.00,3856.15294,S,06800.46821,W,1,05,1.82,275.8,M,22.5,M,,*56
$GPGSA,A,3,29,31,05,25,12,,,,,,,,2.95,1.82,2.32*0C
$GPGSV,2,1,06,02,06,137,,05,21,106,11,12,21,058,15,25,61,065,25*71
$GPGSV,2,2,06,29,69,171,33,31,46,263,23*7A
$GPGLL,3856.15294,S,06800.46821,W,222246.00,A,A*60
$GPRMC,222247.00,A,3856.15332,S,06800.46779,W,0.456,,271114,,,A*70
$GPVTG,,T,,M,0.456,N,0.845,K,A*2D
$GPGGA,222247.00,3856.15332,S,06800.46779,W,1,05,1.82,275.3,M,22.5,M,,*53
$GPGSA,A,3,29,31,05,25,12,,,,,,,,2.95,1.82,2.32*0C
$GPGSV,2,1,06,02,06,137,,05,21,106,13,12,21,058,15,25,61,065,25*73
$GPGSV,2,2,06,29,69,171,33,31,46,263,23*7A
$GPGLL,3856.15332,S,06800.46779,W,222247.00,A,A*6E
$GPRMC,222248.00,A,3856.15350,S,06800.46742,W,0.530,,271114,,,A*72
$GPVTG,,T,,M,0.530,N,0.981,K,A*25
$GPGGA,222248.00,3856.15350,S,06800.46742,W,1,05,1.82,275.2,M,22.5,M,,*51
$GPGSA,A,3,29,31,05,25,12,,,,,,,,2.95,1.82,2.32*0C
$GPGSV,2,1,06,02,06,137,,05,21,106,13,12,21,058,16,25,61,065,25*70
$GPGSV,2,2,06,29,69,171,33,31,46,263,23*7A
$GPGLL,3856.15350,S,06800.46742,W,222248.00,A,A*6D
$GPRMC,222249.00,A,3856.15370,S,06800.46706,W,0.604,,271114,,,A*75
$GPVTG,,T,,M,0.604,N,1.118,K,A*28
$GPGGA,222249.00,3856.15370,S,06800.46706,W,1,05,1.82,274.6,M,22.5,M,,*57
$GPGSA,A,3,29,31,05,25,12,,,,,,,,2.95,1.82,2.32*0C
$GPGSV,2,1,06,02,06,137,,05,21,106,14,12,21,058,16,25,61,065,25*77
$GPGSV,2,2,06,29,69,171,34,31,46,263,22*7C
$GPGLL,3856.15370,S,06800.46706,W,222249.00,A,A*6E
$GPRMC,222250.00,A,3856.15385,S,06800.46668,W,0.660,,271114,,,A*7C
$GPVTG,,T,,M,0.660,N,1.222,K,A*20
$GPGGA,222250.00,3856.15385,S,06800.46668,W,1,05,1.82,274.1,M,22.5,M,,*5B
$GPGSA,A,3,29,31,05,25,12,,,,,,,,2.95,1.82,2.32*0C
$GPGSV,2,1,06,02,06,137,,05,21,106,12,12,21,058,15,25,61,065,25*72
$GPGSV,2,2,06,29,69,171,33,31,46,263,22*7B
$GPGLL,3856.15385,S,06800.46668,W,222250.00,A,A*65
$GPRMC,222251.00,A,3856.15405,S,06800.46569,W,1.234,,271114,,,A*74
$GPVTG,,T,,M,1.234,N,2.286,K,A*29
$GPGGA,222251.00,3856.15405,S,06800.46569,W,1,05,1.82,273.3,M,22.5,M,,*52
$GPGSA,A,3,29,31,05,25,12,,,,,,,,2.95,1.82,2.32*0C
$GPGSV,2,1,06,02,06,137,,05,21,106,11,12,20,058,14,25,61,065,25*71
$GPGSV,2,2,06,29,69,171,33,31,46,263,23*7A
$GPGLL,3856.15405,S,06800.46569,W,222251.00,A,A*69
$GPRMC,222252.00,A,3856.15456,S,06800.46513,W,1.209,,271114,,,A*72
$GPVTG,,T,,M,1.209,N,2.238,K,A*22
$GPGGA,222252.00,3856.15456,S,06800.46513,W,1,05,1.82,272.9,M,22.5,M,,*51
$GPGSA,A,3,29,31,05,25,12,,,,,,,,2.95,1.82,2.32*0C
$GPGSV,2,1,06,02,06,137,,05,21,106,10,12,20,058,14,25,61,065,25*70
$GPGSV,2,2,06,29,69,171,33,31,46,263,23*7A
$GPGLL,3856.15456,S,06800.46513,W,222252.00,A,A*61
$GPRMC,222253.00,A,3856.15486,S,06800.46585,W,0.792,,271114,,,A*77
$GPVTG,,T,,M,0.792,N,1.466,K,A*2A
$GPGGA,222253.00,3856.15486,S,06800.46585,W,1,05,1.82,273.4,M,22.5,M,,*5E
$GPGSA,A,3,29,31,05,25,12,,,,,,,,2.95,1.82,2.32*0C
$GPGSV,2,1,06,02,06,137,,05,21,106,10,12,20,058,14,25,61,065,25*70
$GPGSV,2,2,06,29,69,171,33,31,46,263,22*7B
$GPGLL,3856.15486,S,06800.46585,W,222253.00,A,A*62
$GPRMC,222254.00,A,3856.15492,S,06800.46587,W,0.606,,271114,,,A*7B
$GPVTG,,T,,M,0.606,N,1.123,K,A*22
$GPGGA,222254.00,3856.15492,S,06800.46587,W,1,04,3.40,273.4,M,22.5,M,,*53
$GPGSA,A,3,29,31,25,12,,,,,,,,,5.01,3.40,3.67*0E
$GPGSV,2,1,06,02,06,137,,05,21,106,09,12,20,058,14,25,61,065,25*78
$GPGSV,2,2,06,29,69,171,33,31,46,263,23*7A
$GPGLL,3856.15492,S,06800.46587,W,222254.00,A,A*62
$GPRMC,222255.00,A,3856.15500,S,06800.46533,W,0.479,,271114,,,A*75
$GPVTG,,T,,M,0.479,N,0.888,K,A*21
$GPGGA,222255.00,3856.15500,S,06800.46533,W,1,05,1.82,273.1,M,22.5,M,,*5F
$GPGSA,A,3,29,31,05,25,12,,,,,,,,2.95,1.82,2.32*0C
$GPGSV,2,1,06,02,06,137,,05,21,106,10,12,20,058,15,25,61,065,25*71
$GPGSV,2,2,06,29,69,171,33,31,46,263,23*7A
$GPGLL,3856.15500,S,06800.46533,W,222255.00,A,A*66
$GPRMC,222256.00,A,3856.15511,S,06800.46522,W,0.269,,271114,,,A*71
$GPVTG,,T,,M,0.269,N,0.498,K,A*2B
$GPGGA,222256.00,3856.15511,S,06800.46522,W,1,05,1.82,272.8,M,22.5,M,,*54
$GPGSA,A,3,29,31,05,25,12,,,,,,,,2.95,1.82,2.32*0C
$GPGSV,2,1,06,02,06,137,,05,21,106,11,12,20,058,16,25,61,065,25*73
$GPGSV,2,2,06,29,69,171,33,31,46,263,23*7A
$GPGLL,3856.15511,S,06800.46522,W,222256.00,A,A*65
$GPRMC,222257.00,A,3856.15483,S,06800.46522,W,0.301,,271114,,,A*75
$GPVTG,,T,,M,0.301,N,0.558,K,A*29
$GPGGA,222257.00,3856.15483,S,06800.46522,W,1,05,1.82,272.4,M,22.5,M,,*53
$GPGSA,A,3,29,31,05,25,12,,,,,,,,2.95,1.82,2.32*0C
$GPGSV,2,1,06,02,06,137,,05,21,106,12,12,20,058,18,25,61,065,25*7E
$GPGSV,2,2,06,29,69,171,33,31,46,263,23*7A
$GPGLL,3856.15483,S,06800.46522,W,222257.00,A,A*6E
$GPRMC,222258.00,A,3856.15478,S,06800.46502,W,0.475,,271114,,,A*78
$GPVTG,,T,,M,0.475,N,0.879,K,A*23
$GPGGA,222258.00,3856.15478,S,06800.46502,W,1,05,1.82,272.0,M,22.5,M,,*5E
$GPGSA,A,3,29,31,05,25,12,,,,,,,,2.95,1.82,2.32*0C
$GPGSV,2,1,06,02,06,137,,05,21,106,11,12,20,058,18,25,61,065,25*7D
$GPGSV,2,2,06,29,69,171,33,31,46,263,23*7A
$GPGLL,3856.15478,S,06800.46502,W,222258.00,A,A*67
$GPRMC,222259.00,A,3856.15503,S,06800.46523,W,0.292,,271114,,,A*78
$GPVTG,,T,,M,0.292,N,0.540,K,A*2B
$GPGGA,222259.00,3856.15503,S,06800.46523,W,1,04,3.40,272.4,M,22.5,M,,*58
$GPGSA,A,3,29,31,25,12,,,,,,,,,5.00,3.40,3.67*0F
$GPGSV,2,1,06,02,06,137,,05,21,106,09,12,20,058,17,25,61,065,25*7B
$GPGSV,2,2,06,29,69,171,33,31,46,263,23*7A
$GPGLL,3856.15503,S,06800.46523,W,222259.00,A,A*68
$GPRMC,222300.00,A,3856.15543,S,06800.46483,W,0.331,,271114,,,A*72
$GPVTG,,T,,M,0.331,N,0.612,K,A*27
$GPGGA,222300.00,3856.15543,S,06800.46483,W,1,04,3.40,272.7,M,22.5,M,,*59
$GPGSA,A,3,29,31,25,12,,,,,,,,,5.00,3.40,3.67*0F
$GPGSV,2,1,06,02,06,137,,05,21,106,08,12,20,058,16,25,61,065,25*7B
$GPGSV,2,2,06,29,69,171,33,31,46,263,23*7A
$GPGLL,3856.15543,S,06800.46483,W,222300.00,A,A*6A
$GPRMC,222301.00,A,3856.15551,S,06800.46460,W,0.345,,271114,,,A*7E
$GPVTG,,T,,M,0.345,N,0.640,K,A*23
$GPGGA,222301.00,3856.15551,S,06800.46460,W,1,04,3.40,272.8,M,22.5,M,,*59
$GPGSA,A,3,29,31,25,12,,,,,,,,,5.00,3.40,3.67*0F
$GPGSV,2,1,06,02,06,137,,05,21,106,09,12,20,058,16,25,61,065,25*7A
$GPGSV,2,2,06,29,69,171,33,31,46,263,23*7A
$GPGLL,3856.15551,S,06800.46460,W,222301.00,A,A*65
$GPRMC,222302.00,A,3856.15573,S,06800.46469,W,0.341,,271114,,,A*70
$GPVTG,,T,,M,0.341,N,0.631,K,A*21
$GPGGA,222302.00,3856.15573,S,06800.46469,W,1,04,3.39,273.0,M,22.5,M,,*54
$GPGSA,A,3,29,31,25,12,,,,,,,,,5.00,3.39,3.67*01
$GPGSV,2,1,06,02,06,137,,05,21,106,08,12,20,058,17,25,61,065,25*7A
$GPGSV,2,2,06,29,69,171,33,31,46,263,23*7A
$GPGLL,3856.15573,S,06800.46469,W,222302.00,A,A*6F
$GPRMC,222303.00,A,3856.15575,S,06800.46442,W,0.432,,271114,,,A*7D
$GPVTG,,T,,M,0.432,N,0.800,K,A*2E
$GPGGA,222303.00,3856.15575,S,06800.46442,W,1,04,3.39,272.9,M,22.5,M,,*52
$GPGSA,A,3,29,31,25,12,,,,,,,,,5.00,3.39,3.67*01
$GPGSV,2,1,06,02,06,137,,05,21,106,08,12,20,058,16,25,61,065,25*7B
$GPGSV,2,2,06,29,69,171,33,31,46,263,23*7A
$GPGLL,3856.15575,S,06800.46442,W,222303.00,A,A*61
$GPRMC,222304.00,A,3856.15596,S,06800.46408,W,0.631,,271114,,,A*78
$GPVTG,,T,,M,0.631,N,1.169,K,A*28
$GPGGA,222304.00,3856.15596,S,06800.46408,W,1,04,3.39,273.1,M,22.5,M,,*5F
$GPGSA,A,3,29,31,25,12,,,,,,,,,5.00,3.39,3.67*01
$GPGSV,2,1,06,02,06,137,,05,21,106,08,12,20,058,15,25,60,064,25*78
$GPGSV,2,2,06,29,69,171,34,31,46,263,23*7D
$GPGLL,3856.15596,S,06800.46408,W,222304.00,A,A*65
$GPRMC,222305.00,A,3856.15619,S,06800.46391,W,0.684,,271114,,,A*74
$GPVTG,,T,,M,0.684,N,1.266,K,A*2A
$GPGGA,222305.00,3856.15619,S,06800.46391,W,1,04,3.39,273.4,M,22.5,M,,*58
$GPGSA,A,3,29,31,25,12,,,,,,,,,4.99,3.39,3.67*00
$GPGSV,2,1,06,02,06,137,,05,21,106,06,12,20,058,15,25,60,064,25*76
$GPGSV,2,2,06,29,69,171,33,31,46,263,22*7B
$GPGLL,3856.15619,S,06800.46391,W,222305.00,A,A*67
$GPRMC,222306.00,A,3856.15631,S,06800.46448,W,0.547,,271114,,,A*72
$GPVTG,,T,,M,0.547,N,1.013,K,A*26
$GPGGA,222306.00,3856.15631,S,06800.46448,W,1,04,3.39,273.8,M,22.5,M,,*5E
$GPGSA,A,3,29,31,25,12,,,,,,,,,4.99,3.39,3.67*00
$GPGSV,2,1,06,02,06,137,,05,21,106,06,12,20,058,16,25,60,064,26*76
$GPGSV,2,2,06,29,69,171,33,31,46,263,20*79
$GPGLL,3856.15631,S,06800.46448,W,222306.00,A,A*6D
$GPRMC,222307.00,A,3856.15747,S,06800.46471,W,1.641,,271114,,,A*7D
$GPVTG,,T,,M,1.641,N,3.039,K,A*28
$GPGGA,222307.00,3856.15747,S,06800.46471,W,1,04,3.39,273.9,M,22.5,M,,*54
$GPGSA,A,3,29,31,25,12,,,,,,,,,4.99,3.39,3.67*00
$GPGSV,2,1,06,02,06,137,,05,21,106,06,12,20,058,17,25,60,064,27*76
$GPGSV,2,2,06,29,69,171,31,31,46,263,18*70
$GPGLL,3856.15747,S,06800.46471,W,222307.00,A,A*66
$GPRMC,222308.00,A,3856.15951,S,06800.46468,W,3.369,,271114,,,A*7E
$GPVTG,,T,,M,3.369,N,6.239,K,A*22
$GPGGA,222308.00,3856.15951,S,06800.46468,W,1,05,1.81,273.8,M,22.5,M,,*5B
$GPGSA,A,3,29,31,05,25,12,,,,,,,,2.95,1.81,2.32*0F
$GPGSV,2,1,06,02,06,137,,05,21,106,07,12,20,058,19,25,60,064,27*79
$GPGSV,2,2,06,29,68,170,33,31,46,263,17*7D
$GPGLL,3856.15951,S,06800.46468,W,222308.00,A,A*68
$GPRMC,222309.00,A,3856.16140,S,06800.46464,W,4.474,173.15,271114,,,A*6B
$GPVTG,173.15,T,,M,4.474,N,8.286,K,A*3B
$GPGGA,222309.00,3856.16140,S,06800.46464,W,1,05,3.38,274.3,M,22.5,M,,*51
$GPGSA,A,3,29,31,05,25,12,,,,,,,,4.99,3.38,3.67*04
$GPGSV,2,1,06,02,06,137,,05,21,106,07,12,20,058,19,25,60,064,24*7A
$GPGSV,2,2,06,29,68,170,33,31,46,263,29*70
$GPGLL,3856.16140,S,06800.46464,W,222309.00,A,A*6E
$GPRMC,222310.00,A,3856.16277,S,06800.46466,W,4.486,179.20,271114,,,A*67
$GPVTG,179.20,T,,M,4.486,N,8.307,K,A*32
$GPGGA,222310.00,3856.16277,S,06800.46466,W,1,05,3.38,274.1,M,22.5,M,,*5E
$GPGSA,A,3,29,31,05,25,12,,,,,,,,4.99,3.38,3.67*04
$GPGSV,2,1,06,02,06,137,,05,21,106,20,12,20,058,17,25,60,064,22*77
$GPGSV,2,2,06,29,68,170,27,31,46,264,30*7A
$GPGLL,3856.16277,S,06800.46466,W,222310.00,A,A*63
$GPRMC,222311.00,A,3856.16469,S,06800.46425,W,5.114,177.95,271114,,,A*67
$GPVTG,177.95,T,,M,5.114,N,9.471,K,A*3A
$GPGGA,222311.00,3856.16469,S,06800.46425,W,1,05,3.38,274.0,M,22.5,M,,*50
$GPGSA,A,3,29,31,05,25,12,,,,,,,,4.99,3.38,3.66*05
$GPGSV,2,1,06,02,06,137,,05,21,106,21,12,20,058,17,25,60,064,21*75
$GPGSV,2,2,06,29,68,170,32,31,46,264,29*76
$GPGLL,3856.16469,S,06800.46425,W,222311.00,A,A*6C
$GPRMC,222312.00,A,3856.16687,S,06800.46482,W,5.890,181.13,271114,,,A*69
$GPVTG,181.13,T,,M,5.890,N,10.908,K,A*03
$GPGGA,222312.00,3856.16687,S,06800.46482,W,1,05,3.38,274.0,M,22.5,M,,*5C
$GPGSA,A,3,29,31,05,25,12,,,,,,,,4.99,3.38,3.66*05
$GPGSV,2,1,06,02,06,137,,05,21,106,21,12,20,058,19,25,60,064,23*79
$GPGSV,2,2,06,29,68,170,26,31,46,264,21*7B
$GPGLL,3856.16687,S,06800.46482,W,222312.00,A,A*60
$GPRMC,222313.00,A,3856.16981,S,06800.46557,W,7.304,185.16,271114,,,A*6D
$GPVTG,185.16,T,,M,7.304,N,13.527,K,A*04
$GPGGA,222313.00,3856.16981,S,06800.46557,W,1,05,1.81,274.6,M,22.5,M,,*5B
$GPGSA,A,3,29,31,05,25,12,,,,,,,,2.94,1.81,2.32*0E
$GPGSV,2,1,06,02,06,137,,05,21,106,19,12,20,058,18,25,60,064,27*77
$GPGSV,2,2,06,29,68,170,27,31,46,264,21*7A
$GPGLL,3856.16981,S,06800.46557,W,222313.00,A,A*61
$GPRMC,222314.00,A,3856.17295,S,06800.46634,W,8.524,187.73,271114,,,A*69
$GPVTG,187.73,T,,M,8.524,N,15.786,K,A*01
$GPGGA,222314.00,3856.17295,S,06800.46634,W,1,05,1.81,275.1,M,22.5,M,,*53
$GPGSA,A,3,29,31,05,25,12,,,,,,,,2.94,1.81,2.32*0E
$GPGSV,2,1,06,02,06,137,,05,21,106,16,12,20,058,16,25,60,064,28*79
$GPGSV,2,2,06,29,68,170,29,31,46,264,21*74
$GPGLL,3856.17295,S,06800.46634,W,222314.00,A,A*6F
$GPRMC,222315.00,A,3856.17655,S,06800.46672,W,9.806,187.78,271114,,,A*65
$GPVTG,187.78,T,,M,9.806,N,18.160,K,A*05
$GPGGA,222315.00,3856.17655,S,06800.46672,W,1,05,1.81,275.8,M,22.5,M,,*51
$GPGSA,A,3,29,31,05,25,12,,,,,,,,2.94,1.81,2.32*0E
$GPGSV,2,1,06,02,06,137,,05,21,106,14,12,20,058,14,25,60,064,28*79
$GPGSV,2,2,06,29,68,170,30,31,46,264,21*7C
$GPGLL,3856.17655,S,06800.46672,W,222315.00,A,A*64
$GPRMC,222316.00,A,3856.18078,S,06800.46698,W,11.105,186.69,271114,,,A*56
$GPVTG,186.69,T,,M,11.105,N,20.567,K,A*3F
$GPGGA,222316.00,3856.18078,S,06800.46698,W,1,05,1.81,275.3,M,22.5,M,,*5B
$GPGSA,A,3,29,31,05,25,12,,,,,,,,2.94,1.81,2.32*0E
$GPGSV,2,1,06,02,06,137,,05,21,106,18,12,20,058,14,25,60,064,28*75
$GPGSV,2,2,06,29,68,170,31,31,46,264,28*74
$GPGLL,3856.18078,S,06800.46698,W,222316.00,A,A*65
$GPRMC,222317.00,A,3856.18540,S,06800.46719,W,12.620,185.31,271114,,,A*5C
$GPVTG,185.31,T,,M,12.620,N,23.373,K,A*32
$GPGGA,222317.00,3856.18540,S,06800.46719,W,1,05,1.81,275.6,M,22.5,M,,*59
$GPGSA,A,3,29,31,05,25,12,,,,,,,,2.94,1.81,2.32*0E
$GPGSV,2,1,06,02,06,137,,05,21,106,18,12,20,058,12,25,60,064,27*7C
$GPGSV,2,2,06,29,68,170,32,31,46,264,28*77
$GPGLL,3856.18540,S,06800.46719,W,222317.00,A,A*62
$GPRMC,222318.00,A,3856.19057,S,06800.46705,W,14.296,183.47,271114,,,A*54
$GPVTG,183.47,T,,M,14.296,N,26.476,K,A*3D
$GPGGA,222318.00,3856.19057,S,06800.46705,W,1,05,1.81,276.2,M,22.5,M,,*5E
$GPGSA,A,3,29,31,05,25,12,,,,,,,,2.94,1.81,2.32*0E
$GPGSV,2,1,06,02,06,137,,05,21,106,19,12,20,058,11,25,60,064,26*7F
$GPGSV,2,2,06,29,68,170,33,31,46,264,28*76
$GPGLL,3856.19057,S,06800.46705,W,222318.00,A,A*62
$GPRMC,222319.00,A,3856.19517,S,06800.46719,W,15.192,182.42,271114,,,A*5B
$GPVTG,182.42,T,,M,15.192,N,28.135,K,A*33
$GPGGA,222319.00,3856.19517,S,06800.46719,W,1,05,1.81,277.3,M,22.5,M,,*53
$GPGSA,A,3,29,31,05,25,12,,,,,,,,2.94,1.81,2.32*0E
$GPGSV,2,1,06,02,06,137,,05,21,106,17,12,20,058,11,25,60,064,26*71
$GPGSV,2,2,06,29,68,170,33,31,46,264,30*7F
$GPGLL,3856.19517,S,06800.46719,W,222319.00,A,A*6F
$GPRMC,222320.00,A,3856.20002,S,06800.46764,W,15.796,182.65,271114,,,A*57
$GPVTG,182.65,T,,M,15.796,N,29.254,K,A*31
$GPGGA,222320.00,3856.20002,S,06800.46764,W,1,04,2.54,277.2,M,22.5,M,,*53
$GPGSA,A,3,29,31,05,25,,,,,,,,,3.69,2.54,2.68*0A
$GPGSV,2,1,06,02,06,137,,05,21,106,18,12,20,058,09,25,60,064,27*76
$GPGSV,2,2,06,29,68,170,33,31,46,264,23*7D
$GPGLL,3856.20002,S,06800.46764,W,222320.00,A,A*64
$GPRMC,222321.00,A,3856.20514,S,06800.46719,W,16.603,178.86,271114,,,A*58
$GPVTG,178.86,T,,M,16.603,N,30.749,K,A*36
$GPGGA,222321.00,3856.20514,S,06800.46719,W,1,05,1.81,276.8,M,22.5,M,,*5B
$GPGSA,A,3,29,31,05,25,12,,,,,,,,2.94,1.81,2.32*0E
$GPGSV,2,1,06,02,06,137,,05,21,106,17,12,20,058,10,25,60,064,27*71
$GPGSV,2,2,06,29,68,170,33,31,46,264,30*7F
$GPGLL,3856.20514,S,06800.46719,W,222321.00,A,A*6D
$GPRMC,222322.00,A,3856.21031,S,06800.46709,W,17.273,178.69,271114,,,A*5A
$GPVTG,178.69,T,,M,17.273,N,31.990,K,A*3E
$GPGGA,222322.00,3856.21031,S,06800.46709,W,1,05,1.81,276.8,M,22.5,M,,*5A
$GPGSA,A,3,29,31,05,25,12,,,,,,,,2.94,1.81,2.32*0E
$GPGSV,2,1,06,02,06,137,,05,21,106,17,12,20,058,10,25,60,064,27*71
$GPGSV,2,2,06,29,68,170,33,31,46,264,29*77
$GPGLL,3856.21031,S,06800.46709,W,222322.00,A,A*6C
$GPRMC,222323.00,A,3856.21509,S,06800.46720,W,17.269,179.16,271114,,,A*5C
$GPVTG,179.16,T,,M,17.269,N,31.983,K,A*3E
$GPGGA,222323.00,3856.21509,S,06800.46720,W,1,04,2.53,277.0,M,22.5,M,,*5A
$GPGSA,A,3,29,31,05,25,,,,,,,,,3.69,2.53,2.68*0D
$GPGSV,2,1,06,02,06,137,,05,21,106,18,12,20,058,,25,60,064,26*7E
$GPGSV,2,2,06,29,68,170,33,31,46,264,29*77
$GPGLL,3856.21509,S,06800.46720,W,222323.00,A,A*68
$GPRMC,222324.00,A,3856.21942,S,06800.46690,W,16.683,177.77,271114,,,A*5A
$GPVTG,177.77,T,,M,16.683,N,30.896,K,A*32
$GPGGA,222324.00,3856.21942,S,06800.46690,W,1,04,2.53,276.9,M,22.5,M,,*5C
$GPGSA,A,3,29,31,05,25,,,,,,,,,3.69,2.53,2.68*0D
$GPGSV,2,1,06,02,06,137,,05,21,106,18,12,20,058,,25,60,064,24*7C
$GPGSV,2,2,06,29,68,170,33,31,46,264,21*7F
$GPGLL,3856.21942,S,06800.46690,W,222324.00,A,A*66
$GPRMC,222325.00,A,3856.22358,S,06800.46695,W,16.110,178.74,271114,,,A*5D
$GPVTG,178.74,T,,M,16.110,N,29.835,K,A*32
$GPGGA,222325.00,3856.22358,S,06800.46695,W,1,04,2.53,277.3,M,22.5,M,,*51
$GPGSA,A,3,29,31,05,25,,,,,,,,,3.69,2.53,2.68*0D
$GPGSV,2,1,06,02,06,137,,05,21,106,18,12,20,058,,25,60,064,24*7C
$GPGSV,2,2,06,29,68,170,33,31,46,264,22*7C
$GPGLL,3856.22358,S,06800.46695,W,222325.00,A,A*60
$GPRMC,222326.00,A,3856.22751,S,06800.46695,W,15.505,178.93,271114,,,A*59
$GPVTG,178.93,T,,M,15.505,N,28.716,K,A*37
$GPGGA,222326.00,3856.22751,S,06800.46695,W,1,04,2.53,277.7,M,22.5,M,,*5B
$GPGSA,A,3,29,31,05,25,,,,,,,,,3.69,2.53,2.68*0D
$GPGSV,2,1,06,02,06,137,,05,21,106,17,12,20,058,,25,60,064,25*72
$GPGSV,2,2,06,29,68,170,33,31,46,264,24*7A
$GPGLL,3856.22751,S,06800.46695,W,222326.00,A,A*6E
$GPRMC,222327.00,A,3856.23149,S,06800.46663,W,15.158,178.16,271114,,,A*5E
$GPVTG,178.16,T,,M,15.158,N,28.073,K,A*32
$GPGGA,222327.00,3856.23149,S,06800.46663,W,1,04,2.53,278.0,M,22.5,M,,*55
$GPGSA,A,3,29,31,05,25,,,,,,,,,3.69,2.53,2.68*0D
$GPGSV,2,1,06,02,06,137,,05,21,106,16,12,20,058,,25,60,064,27*71
$GPGSV,2,2,06,29,68,170,33,31,46,264,23*7D
$GPGLL,3856.23149,S,06800.46663,W,222327.00,A,A*68
$GPRMC,222328.00,A,3856.23517,S,06800.46647,W,14.543,177.57,271114,,,A*5D
$GPVTG,177.57,T,,M,14.543,N,26.934,K,A*33
$GPGGA,222328.00,3856.23517,S,06800.46647,W,1,04,2.53,278.1,M,22.5,M,,*52
$GPGSA,A,3,29,31,05,25,,,,,,,,,3.69,2.53,2.68*0D
$GPGSV,2,1,06,02,06,137,,05,21,106,18,12,20,058,,25,60,064,27*7F
$GPGSV,2,2,06,29,68,170,33,31,46,264,24*7A
$GPGLL,3856.23517,S,06800.46647,W,222328.00,A,A*6E
$GPRMC,222329.00,A,3856.23894,S,06800.46653,W,14.225,177.92,271114,,,A*51
$GPVTG,177.92,T,,M,14.225,N,26.344,K,A*30
$GPGGA,222329.00,3856.23894,S,06800.46653,W,1,04,2.53,278.1,M,22.5,M,,*50
$GPGSA,A,3,29,31,05,25,,,,,,,,,3.69,2.53,2.68*0D
$GPGSV,2,1,06,02,06,137,,05,21,106,21,12,20,058,,25,60,064,26*74
$GPGSV,2,2,06,29,68,170,33,31,46,264,23*7D
$GPGLL,3856.23894,S,06800.46653,W,222329.00,A,A*6C
$GPRMC,222330.00,A,3856.24297,S,06800.46658,W,14.222,178.31,271114,,,A*5D
$GPVTG,178.31,T,,M,14.222,N,26.339,K,A*3B
$GPGGA,222330.00,3856.24297,S,06800.46658,W,1,05,2.53,277.8,M,22.5,M,,*5A
$GPGSA,A,3,29,31,05,25,12,,,,,,,,3.69,2.53,2.68*0E
$GPGSV,2,1,06,02,06,137,,05,21,106,22,12,20,058,15,25,60,064,23*76
$GPGSV,2,2,06,29,68,170,33,31,46,264,20*7E
$GPGLL,3856.24297,S,06800.46658,W,222330.00,A,A*61
$GPRMC,222331.00,A,3856.24743,S,06800.46586,W,14.696,176.84,271114,,,A*5B
$GPVTG,176.84,T,,M,14.696,N,27.218,K,A*33
$GPGGA,222331.00,3856.24743,S,06800.46586,W,1,05,2.53,278.0,M,22.5,M,,*50
$GPGSA,A,3,29,31,05,25,12,,,,,,,,3.69,2.53,2.68*0E
$GPGSV,2,1,06,02,06,137,,05,21,106,18,12,20,058,14,25,60,064,21*7C
$GPGSV,2,2,06,29,68,170,33,31,46,264,23*7D
$GPGLL,3856.24743,S,06800.46586,W,222331.00,A,A*6C
$GPRMC,222332.00,A,3856.25159,S,06800.46554,W,14.729,176.12,271114,,,A*51
$GPVTG,176.12,T,,M,14.729,N,27.278,K,A*3F
$GPGGA,222332.00,3856.25159,S,06800.46554,W,1,05,2.53,277.9,M,22.5,M,,*56
$GPGSA,A,3,29,31,05,25,12,,,,,,,,3.69,2.53,2.69*0F
$GPGSV,2,1,06,02,06,137,,05,21,106,19,12,20,058,14,25,60,064,21*7D
$GPGSV,2,2,06,29,68,170,34,31,46,264,26*7F
$GPGLL,3856.25159,S,06800.46554,W,222332.00,A,A*6C
$GPRMC,222333.00,A,3856.25484,S,06800.46615,W,13.951,177.96,271114,,,A*58
$GPVTG,177.96,T,,M,13.951,N,25.837,K,A*37
$GPGGA,222333.00,3856.25484,S,06800.46615,W,1,05,2.53,277.7,M,22.5,M,,*5A
$GPGSA,A,3,29,31,05,25,12,,,,,,,,3.69,2.53,2.69*0F
$GPGSV,2,1,06,02,06,137,,05,21,106,17,12,20,058,12,25,60,064,23*77
$GPGSV,2,2,06,29,68,170,34,31,46,264,28*71
$GPGLL,3856.25484,S,06800.46615,W,222333.00,A,A*6E
$GPRMC,222334.00,A,3856.25806,S,06800.46639,W,13.304,179.08,271114,,,A*54
$GPVTG,179.08,T,,M,13.304,N,24.640,K,A*3B
$GPGGA,222334.00,3856.25806,S,06800.46639,W,1,04,2.52,277.4,M,22.5,M,,*56
$GPGSA,A,3,29,31,05,25,,,,,,,,,3.69,2.52,2.69*0D
$GPGSV,2,1,06,02,06,137,,05,21,106,16,12,20,058,09,25,60,064,24*7B
$GPGSV,2,2,06,29,68,170,34,31,46,264,28*71
$GPGLL,3856.25806,S,06800.46639,W,222334.00,A,A*61
$GPRMC,222335.00,A,3856.26154,S,06800.46668,W,13.163,180.03,271114,,,A*52
$GPVTG,180.03,T,,M,13.163,N,24.378,K,A*3B
$GPGGA,222335.00,3856.26154,S,06800.46668,W,1,04,2.52,277.4,M,22.5,M,,*5E
$GPGSA,A,3,29,31,05,25,,,,,,,,,3.69,2.52,2.69*0D
$GPGSV,2,1,06,02,06,137,,05,21,106,17,12,20,058,09,25,60,064,25*7B
$GPGSV,2,2,06,29,68,170,34,31,46,264,29*70
$GPGLL,3856.26154,S,06800.46668,W,222335.00,A,A*69
$GPRMC,222336.00,A,3856.26481,S,06800.46691,W,12.940,180.48,271114,,,A*5D
$GPVTG,180.48,T,,M,12.940,N,23.966,K,A*3E
$GPGGA,222336.00,3856.26481,S,06800.46691,W,1,04,2.52,277.8,M,22.5,M,,*5A
$GPGSA,A,3,29,31,05,25,,,,,,,,,3.68,2.52,2.69*0C
$GPGSV,2,1,06,02,06,137,,05,21,106,17,12,20,058,09,25,60,064,26*78
$GPGSV,2,2,06,29,68,170,34,31,46,264,29*70
$GPGLL,3856.26481,S,06800.46691,W,222336.00,A,A*61
$GPRMC,222337.00,A,3856.26739,S,06800.46646,W,12.126,178.43,271114,,,A*52
$GPVTG,178.43,T,,M,12.126,N,22.458,K,A*3B
$GPGGA,222337.00,3856.26739,S,06800.46646,W,1,04,2.52,277.7,M,22.5,M,,*5E
$GPGSA,A,3,29,31,05,25,,,,,,,,,3.68,2.52,2.69*0C
$GPGSV,2,1,06,02,06,137,,05,21,106,16,12,20,058,08,25,60,064,27*79
$GPGSV,2,2,06,29,68,170,32,31,46,264,27*78
$GPGLL,3856.26739,S,06800.46646,W,222337.00,A,A*6A
$GPRMC,222338.00,A,3856.27001,S,06800.46595,W,11.461,175.63,271114,,,A*57
$GPVTG,175.63,T,,M,11.461,N,21.225,K,A*3E
$GPGGA,222338.00,3856.27001,S,06800.46595,W,1,05,1.80,278.0,M,22.5,M,,*54
$GPGSA,A,3,29,31,05,25,12,,,,,,,,2.94,1.80,2.32*0F
$GPGSV,2,1,06,02,06,137,,05,21,106,20,12,20,058,14,25,60,064,26*70
$GPGSV,2,2,06,29,68,170,30,31,46,264,26*7B
$GPGLL,3856.27001,S,06800.46595,W,222338.00,A,A*65
$GPRMC,222339.00,A,3856.27260,S,06800.46520,W,10.880,172.91,271114,,,A*55
$GPVTG,172.91,T,,M,10.880,N,20.149,K,A*3E
$GPGGA,222339.00,3856.27260,S,06800.46520,W,1,05,1.80,278.4,M,22.5,M,,*5A
$GPGSA,A,3,29,31,05,25,12,,,,,,,,2.94,1.80,2.32*0F
$GPGSV,2,1,06,02,06,137,,05,21,106,20,12,20,058,19,25,60,064,25*7E
$GPGSV,2,2,06,29,68,170,29,31,46,264,22*77
$GPGLL,3856.27260,S,06800.46520,W,222339.00,A,A*6F
$GPRMC,222340.00,A,3856.27534,S,06800.46427,W,10.642,169.96,271114,,,A*56
$GPVTG,169.96,T,,M,10.642,N,19.709,K,A*3B
$GPGGA,222340.00,3856.27534,S,06800.46427,W,1,05,1.80,278.7,M,22.5,M,,*57
$GPGSA,A,3,29,31,05,25,12,,,,,,,,2.94,1.80,2.32*0F
$GPGSV,2,1,06,02,06,137,,05,21,106,20,12,20,058,21,25,60,064,24*74
$GPGSV,2,2,06,29,68,170,27,31,46,264,24*7F
$GPGLL,3856.27534,S,06800.46427,W,222340.00,A,A*61
$GPRMC,222341.00,A,3856.27795,S,06800.46291,W,10.496,166.21,271114,,,A*5D
$GPVTG,166.21,T,,M,10.496,N,19.439,K,A*33
$GPGGA,222341.00,3856.27795,S,06800.46291,W,1,05,1.80,279.0,M,22.5,M,,*52
$GPGSA,A,3,29,31,05,25,12,,,,,,,,2.94,1.80,2.32*0F
$GPGSV,2,1,06,02,06,137,,05,21,106,18,12,20,058,19,25,60,064,23*73
$GPGSV,2,2,06,29,68,170,27,31,46,264,23*78
$GPGLL,3856.27795,S,06800.46291,W,222341.00,A,A*62
$GPRMC,222342.00,A,3856.28030,S,06800.46121,W,10.157,161.81,271114,,,A*54
$GPVTG,161.81,T,,M,10.157,N,18.810,K,A*30
$GPGGA,222342.00,3856.28030,S,06800.46121,W,1,05,1.80,278.5,M,22.5,M,,*5A
$GPGSA,A,3,29,31,05,25,12,,,,,,,,2.94,1.80,2.32*0F
$GPGSV,2,1,06,02,06,137,,05,21,106,13,12,20,058,20,25,60,064,20*71
$GPGSV,2,2,06,29,68,170,27,31,46,264,23*78
$GPGLL,3856.28030,S,06800.46121,W,222342.00,A,A*6E
$GPRMC,222343.00,A,3856.28220,S,06800.45942,W,9.630,157.15,271114,,,A*6E
$GPVTG,157.15,T,,M,9.630,N,17.834,K,A*0F
$GPGGA,222343.00,3856.28220,S,06800.45942,W,1,04,3.34,278.5,M,22.5,M,,*5A
$GPGSA,A,3,29,31,25,12,,,,,,,,,4.95,3.34,3.65*03
$GPGSV,2,1,06,02,06,137,18,05,21,106,09,12,20,058,22,25,60,064,19*7B
$GPGSV,2,2,06,29,68,170,27,31,46,264,24*7F
$GPGLL,3856.28220,S,06800.45942,W,222343.00,A,A*62
$GPRMC,222344.00,A,3856.28380,S,06800.45786,W,8.971,153.82,271114,,,A*65
$GPVTG,153.82,T,,M,8.971,N,16.614,K,A*03
$GPGGA,222344.00,3856.28380,S,06800.45786,W,1,04,3.34,278.3,M,22.5,M,,*56
$GPGSA,A,3,29,31,25,12,,,,,,,,,4.94,3.34,3.65*02
$GPGSV,2,1,06,02,06,137,18,05,21,106,08,12,20,058,20,25,60,064,16*77
$GPGSV,2,2,06,29,68,170,27,31,46,264,26*7D
$GPGLL,3856.28380,S,06800.45786,W,222344.00,A,A*68
$GPRMC,222345.00,A,3856.28556,S,06800.45680,W,8.402,152.81,271114,,,A*65
$GPVTG,152.81,T,,M,8.402,N,15.561,K,A*0A
$GPGGA,222345.00,3856.28556,S,06800.45680,W,1,04,3.34,278.0,M,22.5,M,,*5E
$GPGSA,A,3,29,31,25,12,,,,,,,,,4.94,3.34,3.65*02
$GPGSV,2,1,06,02,06,137,20,05,21,106,08,12,20,058,20,25,60,064,17*7D
$GPGSV,2,2,06,29,68,170,26,31,46,264,26*7C
$GPGLL,3856.28556,S,06800.45680,W,222345.00,A,A*63
$GPRMC,222346.00,A,3856.28686,S,06800.45547,W,7.786,151.08,271114,,,A*62
$GPVTG,151.08,T,,M,7.786,N,14.420,K,A*0D
$GPGGA,222346.00,3856.28686,S,06800.45547,W,1,04,3.34,278.1,M,22.5,M,,*5A
$GPGSA,A,3,29,31,25,12,,,,,,,,,4.94,3.34,3.65*02
$GPGSV,2,1,06,02,06,137,23,05,21,106,08,12,20,058,17,25,60,064,16*7B
$GPGSV,2,2,06,29,68,170,26,31,46,264,25*7F
$GPGLL,3856.28686,S,06800.45547,W,222346.00,A,A*66
$GPRMC,222347.00,A,3856.28893,S,06800.45394,W,7.666,149.92,271114,,,A*64
$GPVTG,149.92,T,,M,7.666,N,14.197,K,A*01
$GPGGA,222347.00,3856.28893,S,06800.45394,W,1,05,1.80,277.1,M,22.5,M,,*5A
$GPGSA,A,3,29,31,05,25,12,,,,,,,,2.94,1.80,2.32*0F
$GPGSV,2,1,06,02,06,137,25,05,21,106,09,12,20,058,16,25,60,064,19*72
$GPGSV,2,2,06,29,68,170,27,31,46,264,22*79
$GPGLL,3856.28893,S,06800.45394,W,222347.00,A,A*65
$GPRMC,222348.00,A,3856.29120,S,06800.45234,W,7.677,149.26,271114,,,A*6F
$GPVTG,149.26,T,,M,7.677,N,14.218,K,A*0A
$GPGGA,222348.00,3856.29120,S,06800.45234,W,1,05,1.80,275.9,M,22.5,M,,*54
$GPGSA,A,3,29,31,05,25,12,,,,,,,,2.94,1.80,2.32*0F
$GPGSV,2,1,06,02,06,137,26,05,21,106,09,12,20,058,17,25,60,064,20*7A
$GPGSV,2,2,06,29,68,170,27,31,46,264,20*7B
$GPGLL,3856.29120,S,06800.45234,W,222348.00,A,A*61
$GPRMC,222349.00,A,3856.29341,S,06800.45041,W,7.856,147.95,271114,,,A*60
$GPVTG,147.95,T,,M,7.856,N,14.550,K,A*0A
$GPGGA,222349.00,3856.29341,S,06800.45041,W,1,05,1.80,275.1,M,22.5,M,,*58
$GPGSA,A,3,29,31,05,25,12,,,,,,,,2.94,1.80,2.32*0F
$GPGSV,2,1,06,02,06,137,26,05,21,106,09,12,20,058,18,25,60,064,19*7F
$GPGSV,2,2,06,29,68,170,26,31,46,264,17*7E
$GPGLL,3856.29341,S,06800.45041,W,222349.00,A,A*65
$GPRMC,222350.00,A,3856.29513,S,06800.44842,W,7.726,145.29,271114,,,A*6E
$GPVTG,145.29,T,,M,7.726,N,14.309,K,A*0D
$GPGGA,222350.00,3856.29513,S,06800.44842,W,1,05,1.80,274.5,M,22.5,M,,*5E
$GPGSA,A,3,29,31,05,25,12,,,,,,,,2.94,1.80,2.32*0F
$GPGSV,2,1,06,02,06,137,25,05,21,106,09,12,20,058,18,25,60,064,19*7C
$GPGSV,2,2,06,29,68,170,26,31,46,264,18*71
$GPGLL,3856.29513,S,06800.44842,W,222350.00,A,A*66
$GPRMC,222351.00,A,3856.29618,S,06800.44711,W,6.959,143.23,271114,,,A*65
$GPVTG,143.23,T,,M,6.959,N,12.889,K,A*03
$GPGGA,222351.00,3856.29618,S,06800.44711,W,1,05,1.80,273.6,M,22.5,M,,*5A
$GPGSA,A,3,29,31,05,25,12,,,,,,,,2.94,1.80,2.32*0F
$GPGSV,2,1,06,02,06,137,22,05,21,106,09,12,20,058,18,25,60,064,17*75
$GPGSV,2,2,06,29,68,170,27,31,46,264,18*70
$GPGLL,3856.29618,S,06800.44711,W,222351.00,A,A*66
$GPRMC,222352.00,A,3856.29744,S,06800.44609,W,6.361,143.02,271114,,,A*64
$GPVTG,143.02,T,,M,6.361,N,11.780,K,A*04
$GPGGA,222352.00,3856.29744,S,06800.44609,W,1,05,1.80,272.9,M,22.5,M,,*57
$GPGSA,A,3,29,31,05,25,12,,,,,,,,2.93,1.80,2.32*08
$GPGSV,2,1,06,02,06,137,22,05,21,106,09,12,20,058,18,25,60,064,15*77
$GPGSV,2,2,06,29,68,170,27,31,46,264,19*71
$GPGLL,3856.29744,S,06800.44609,W,222352.00,A,A*65
$GPRMC,222353.00,A,3856.29838,S,06800.44522,W,5.691,143.37,271114,,,A*64
$GPVTG,143.37,T,,M,5.691,N,10.540,K,A*04
$GPGGA,222353.00,3856.29838,S,06800.44522,W,1,05,1.80,272.6,M,22.5,M,,*57
$GPGSA,A,3,29,31,05,25,12,,,,,,,,2.93,1.80,2.32*08
$GPGSV,2,1,06,02,06,137,19,05,21,106,11,12,20,058,19,25,60,064,13*71
$GPGSV,2,2,06,29,68,170,28,31,46,264,18*7F
$GPGLL,3856.29838,S,06800.44522,W,222353.00,A,A*6A
$GPRMC,222354.00,A,3856.29923,S,06800.44460,W,4.996,144.67,271114,,,A*64
$GPVTG,144.67,T,,M,4.996,N,9.253,K,A*32
$GPGGA,222354.00,3856.29923,S,06800.44460,W,1,05,1.80,272.2,M,22.5,M,,*58
$GPGSA,A,3,29,31,05,25,12,,,,,,,,2.93,1.80,2.32*08
$GPGSV,2,1,06,02,06,137,18,05,21,106,11,12,20,058,21,25,60,064,12*7A
$GPGSV,2,2,06,29,68,170,28,31,46,264,18*7F
$GPGLL,3856.29923,S,06800.44460,W,222354.00,A,A*61
$GPRMC,222355.00,A,3856.29999,S,06800.44328,W,4.662,142.52,271114,,,A*6B
$GPVTG,142.52,T,,M,4.662,N,8.634,K,A*32
$GPGGA,222355.00,3856.29999,S,06800.44328,W,1,05,1.80,271.8,M,22.5,M,,*5A
$GPGSA,A,3,29,31,05,25,12,,,,,,,,2.93,1.80,2.32*08
$GPGSV,2,1,06,02,06,137,17,05,21,106,11,12,20,058,20,25,60,064,11*77
$GPGSV,2,2,06,29,68,170,26,31,46,264,21*7B
$GPGLL,3856.29999,S,06800.44328,W,222355.00,A,A*6A
$GPRMC,222356.00,A,3856.30103,S,06800.44274,W,4.278,143.77,271114,,,A*6A
$GPVTG,143.77,T,,M,4.278,N,7.923,K,A*3D
$GPGGA,222356.00,3856.30103,S,06800.44274,W,1,04,2.31,271.3,M,22.5,M,,*51
$GPGSA,A,3,29,31,05,12,,,,,,,,,4.42,2.31,3.77*0C
$GPGSV,2,1,06,02,06,137,20,05,21,106,11,12,20,058,20,25,60,064,09*7A
$GPGSV,2,2,06,29,68,170,24,31,46,264,29*71
$GPGLL,3856.30103,S,06800.44274,W,222356.00,A,A*62
$GPRMC,222357.00,A,3856.30124,S,06800.44260,W,3.426,145.34,271114,,,A*60
$GPVTG,145.34,T,,M,3.426,N,6.345,K,A*3D
$GPGGA,222357.00,3856.30124,S,06800.44260,W,1,04,2.31,271.1,M,22.5,M,,*52
$GPGSA,A,3,29,31,05,12,,,,,,,,,4.42,2.31,3.77*0C
$GPGSV,2,1,06,02,06,137,22,05,21,106,11,12,20,058,22,25,60,064,08*7B
$GPGSV,2,2,06,29,68,170,25,31,46,264,21*78
$GPGLL,3856.30124,S,06800.44260,W,222357.00,A,A*63
$GPRMC,222358.00,A,3856.30164,S,06800.44242,W,2.838,147.73,271114,,,A*68
$GPVTG,147.73,T,,M,2.838,N,5.257,K,A*3F
$GPGGA,222358.00,3856.30164,S,06800.44242,W,1,04,2.31,270.8,M,22.5,M,,*51
$GPGSA,A,3,29,31,05,12,,,,,,,,,4.42,2.31,3.77*0C
$GPGSV,2,1,06,02,06,137,23,05,21,106,11,12,20,058,22,25,60,064,08*7A
$GPGSV,2,2,06,29,68,170,27,31,46,264,20*7B
$GPGLL,3856.30164,S,06800.44242,W,222358.00,A,A*68
$GPRMC,222359.00,A,3856.30214,S,06800.44173,W,2.676,,271114,,,A*70
$GPVTG,,T,,M,2.676,N,4.955,K,A*2B
$GPGGA,222359.00,3856.30214,S,06800.44173,W,1,05,1.80,270.8,M,22.5,M,,*5D
$GPGSA,A,3,29,31,05,25,12,,,,,,,,2.93,1.80,2.32*08
$GPGSV,2,1,06,02,06,137,23,05,21,106,10,12,20,058,24,25,60,064,11*75
$GPGSV,2,2,06,29,68,170,27,31,46,264,20*7B
$GPGLL,3856.30214,S,06800.44173,W,222359.00,A,A*6C
$GPRMC,222400.00,A,3856.30293,S,06800.44074,W,2.917,142.97,271114,,,A*6D
$GPVTG,142.97,T,,M,2.917,N,5.402,K,A*3A
$GPGGA,222400.00,3856.30293,S,06800.44074,W,1,05,1.80,271.1,M,22.5,M,,*57
$GPGSA,A,3,29,31,05,25,12,,,,,,,,2.93,1.80,2.32*08
$GPGSV,2,1,06,02,06,137,24,05,21,106,10,12,20,058,25,25,60,064,11*73
$GPGSV,2,2,06,29,68,170,28,31,46,264,21*75
$GPGLL,3856.30293,S,06800.44074,W,222400.00,A,A*6E
$GPRMC,222401.00,A,3856.30355,S,06800.44082,W,2.587,147.14,271114,,,A*65
$GPVTG,147.14,T,,M,2.587,N,4.790,K,A*38
$GPGGA,222401.00,3856.30355,S,06800.44082,W,1,05,1.80,271.2,M,22.5,M,,*57
$GPGSA,A,3,29,31,05,25,12,,,,,,,,2.93,1.80,2.32*08
$GPGSV,2,1,06,02,06,137,23,05,21,106,10,12,20,058,24,25,60,064,11*75
$GPGSV,2,2,06,29,68,170,28,31,46,264,23*77
$GPGLL,3856.30355,S,06800.44082,W,222401.00,A,A*6D
$GPRMC,222402.00,A,3856.30415,S,06800.44037,W,2.565,149.32,271114,,,A*6D
$GPVTG,149.32,T,,M,2.565,N,4.751,K,A*33
$GPGGA,222402.00,3856.30415,S,06800.44037,W,1,05,1.80,271.5,M,22.5,M,,*5E
$GPGSA,A,3,29,31,05,25,12,,,,,,,,2.93,1.80,2.32*08
$GPGSV,2,1,06,02,06,137,21,05,21,106,10,12,20,058,25,25,60,064,11*76
$GPGSV,2,2,06,29,68,170,28,31,46,264,26*72
$GPGLL,3856.30415,S,06800.44037,W,222402.00,A,A*63
$GPRMC,222403.00,A,3856.30498,S,06800.43913,W,3.047,143.63,271114,,,A*6B
$GPVTG,143.63,T,,M,3.047,N,5.644,K,A*3D
$GPGGA,222403.00,3856.30498,S,06800.43913,W,1,05,1.80,272.0,M,22.5,M,,*54
$GPGSA,A,3,29,31,05,25,12,,,,,,,,2.93,1.80,2.32*08
$GPGSV,2,1,06,02,06,137,21,05,21,106,10,12,20,058,24,25,60,064,11*77
$GPGSV,2,2,06,29,68,170,28,31,46,264,27*73
$GPGLL,3856.30498,S,06800.43913,W,222403.00,A,A*6F
$GPRMC,222404.00,A,3856.30649,S,06800.43752,W,3.980,139.70,271114,,,A*64
$GPVTG,139.70,T,,M,3.980,N,7.371,K,A*31
$GPGGA,222404.00,3856.30649,S,06800.43752,W,1,04,2.50,272.2,M,22.5,M,,*5B
$GPGSA,A,3,29,31,05,25,,,,,,,,,3.67,2.50,2.69*01
$GPGSV,2,1,06,02,06,137,23,05,21,106,10,12,20,058,,25,60,064,11*73
$GPGSV,2,2,06,29,68,170,26,31,46,264,28*72
$GPGLL,3856.30649,S,06800.43752,W,222404.00,A,A*6D
$GPRMC,222405.00,A,3856.30798,S,06800.43587,W,4.770,137.72,271114,,,A*68
$GPVTG,137.72,T,,M,4.770,N,8.835,K,A*3F
$GPGGA,222405.00,3856.30798,S,06800.43587,W,1,05,2.50,272.8,M,22.5,M,,*56
$GPGSA,A,3,29,31,05,25,12,,,,,,,,3.67,2.50,2.69*02
$GPGSV,2,1,06,02,06,137,22,05,21,106,15,12,20,058,21,25,60,064,25*73
$GPGSV,2,2,06,29,68,170,26,31,46,264,25*7F
$GPGLL,3856.30798,S,06800.43587,W,222405.00,A,A*6B
$GPRMC,222406.00,A,3856.31018,S,06800.43355,W,6.209,135.52,271114,,,A*65
$GPVTG,135.52,T,,M,6.209,N,11.499,K,A*04
$GPGGA,222406.00,3856.31018,S,06800.43355,W,1,05,2.50,272.9,M,22.5,M,,*53
$GPGSA,A,3,29,31,05,25,12,,,,,,,,3.67,2.50,2.69*02
$GPGSV,2,1,06,02,06,137,22,05,21,106,12,12,20,058,19,25,60,064,25*7F
$GPGSV,2,2,06,29,68,170,26,31,46,264,25*7F
$GPGLL,3856.31018,S,06800.43355,W,222406.00,A,A*6F
$GPRMC,222407.00,A,3856.31274,S,06800.43070,W,7.859,134.02,271114,,,A*62
$GPVTG,134.02,T,,M,7.859,N,14.554,K,A*0B
$GPGGA,222407.00,3856.31274,S,06800.43070,W,1,05,2.50,273.0,M,22.5,M,,*56
$GPGSA,A,3,29,31,05,25,12,,,,,,,,3.67,2.50,2.69*02
$GPGSV,2,1,06,02,06,137,22,05,21,106,17,12,20,058,19,25,60,064,23*7C
$GPGSV,2,2,06,29,68,170,25,31,46,264,26*7F
$GPGLL,3856.31274,S,06800.43070,W,222407.00,A,A*62
$GPRMC,222408.00,A,3856.31687,S,06800.42834,W,9.468,139.13,271114,,,A*61
$GPVTG,139.13,T,,M,9.468,N,17.534,K,A*03
$GPGGA,222408.00,3856.31687,S,06800.42834,W,1,05,1.79,273.3,M,22.5,M,,*53
$GPGSA,A,3,29,31,05,25,12,,,,,,,,2.93,1.79,2.32*0E
$GPGSV,2,1,06,02,06,137,21,05,21,106,18,12,20,058,23,25,60,064,21*7B
$GPGSV,2,2,06,29,68,170,26,31,46,264,26*7C
$GPGLL,3856.31687,S,06800.42834,W,222408.00,A,A*6C
$GPRMC,222409.00,A,3856.32059,S,06800.42613,W,10.518,143.74,271114,,,A*5F
$GPVTG,143.74,T,,M,10.518,N,19.479,K,A*37
$GPGGA,222409.00,3856.32059,S,06800.42613,W,1,05,1.79,273.6,M,22.5,M,,*5A
$GPGSA,A,3,29,31,05,25,12,,,,,,,,2.93,1.79,2.32*0E
$GPGSV,2,1,06,02,06,137,19,05,21,106,17,12,20,058,25,25,60,064,17*7C
$GPGSV,2,2,06,29,68,170,27,31,46,264,23*78
$GPGLL,3856.32059,S,06800.42613,W,222409.00,A,A*60
$GPRMC,222410.00,A,3856.32337,S,06800.42373,W,10.884,144.61,271114,,,A*54
$GPVTG,144.61,T,,M,10.884,N,20.158,K,A*30
$GPGGA,222410.00,3856.32337,S,06800.42373,W,1,05,1.79,273.6,M,22.5,M,,*5A
$GPGSA,A,3,29,31,05,25,12,,,,,,,,2.93,1.79,2.32*0E
$GPGSV,2,1,06,02,06,137,17,05,21,106,16,12,20,058,22,25,60,064,15*76
$GPGSV,2,2,06,29,68,170,28,31,46,264,22*76
$GPGLL,3856.32337,S,06800.42373,W,222410.00,A,A*60
$GPRMC,222411.00,A,3856.32676,S,06800.42093,W,11.674,144.91,271114,,,A*57
$GPVTG,144.91,T,,M,11.674,N,21.621,K,A*37
$GPGGA,222411.00,3856.32676,S,06800.42093,W,1,05,1.79,274.0,M,22.5,M,,*57
$GPGSA,A,3,29,31,05,25,12,,,,,,,,2.93,1.79,2.32*0E
$GPGSV,2,1,06,02,06,137,16,05,21,106,15,12,20,058,20,25,60,064,11*72
$GPGSV,2,2,06,29,68,170,28,31,46,264,22*76
$GPGLL,3856.32676,S,06800.42093,W,222411.00,A,A*6C
$GPRMC,222412.00,A,3856.33050,S,06800.41856,W,12.199,147.03,271114,,,A*5A
$GPVTG,147.03,T,,M,12.199,N,22.593,K,A*31
$GPGGA,222412.00,3856.33050,S,06800.41856,W,1,04,2.30,274.4,M,22.5,M,,*5E
$GPGSA,A,3,29,31,05,12,,,,,,,,,4.42,2.30,3.78*02
$GPGSV,2,1,06,02,06,137,16,05,21,106,15,12,20,058,21,25,60,064,09*7A
$GPGSV,2,2,06,29,68,170,28,31,46,264,23*77
$GPGLL,3856.33050,S,06800.41856,W,222412.00,A,A*6E
$GPRMC,222413.00,A,3856.33311,S,06800.41633,W,11.777,147.45,271114,,,A*57
$GPVTG,147.45,T,,M,11.777,N,21.811,K,A*32
$GPGGA,222413.00,3856.33311,S,06800.41633,W,1,04,2.30,274.6,M,22.5,M,,*56
$GPGSA,A,3,29,31,05,12,,,,,,,,,4.42,2.30,3.78*02
$GPGSV,2,1,06,02,06,137,16,05,21,106,16,12,20,058,21,25,60,064,08*78
$GPGSV,2,2,06,29,68,170,27,31,46,264,22*79
$GPGLL,3856.33311,S,06800.41633,W,222413.00,A,A*64
$GPRMC,222414.00,A,3856.33604,S,06800.41455,W,11.587,149.41,271114,,,A*54
$GPVTG,149.41,T,,M,11.587,N,21.459,K,A*35
$GPGGA,222414.00,3856.33604,S,06800.41455,W,1,04,2.30,275.1,M,22.5,M,,*54
$GPGSA,A,3,29,31,05,12,,,,,,,,,4.42,2.30,3.78*02
$GPGSV,2,1,06,02,06,137,17,05,21,106,14,12,20,058,22,25,60,064,08*78
$GPGSV,2,2,06,29,68,170,27,31,46,264,22*79
$GPGLL,3856.33604,S,06800.41455,W,222414.00,A,A*60
$GPRMC,222415.00,A,3856.33937,S,06800.41182,W,12.088,149.12,271114,,,A*5A
$GPVTG,149.12,T,,M,12.088,N,22.387,K,A*3D
$GPGGA,222415.00,3856.33937,S,06800.41182,W,1,04,2.30,275.4,M,22.5,M,,*50
$GPGSA,A,3,29,31,05,12,,,,,,,,,4.42,2.30,3.78*02
$GPGSV,2,1,06,02,06,137,18,05,21,106,13,12,20,058,21,25,60,063,08*74
$GPGSV,2,2,06,29,68,170,28,31,46,264,23*77
$GPGLL,3856.33937,S,06800.41182,W,222415.00,A,A*61
$GPRMC,222416.00,A,3856.34325,S,06800.40829,W,13.121,147.50,271114,,,A*55
$GPVTG,147.50,T,,M,13.121,N,24.301,K,A*3E
$GPGGA,222416.00,3856.34325,S,06800.40829,W,1,04,2.30,275.6,M,22.5,M,,*56
$GPGSA,A,3,29,31,05,12,,,,,,,,,4.42,2.30,3.78*02
$GPGSV,2,1,06,02,06,137,16,05,21,106,11,12,20,058,20,25,60,063,08*79
$GPGSV,2,2,06,29,68,170,27,31,46,264,25*7E
$GPGLL,3856.34325,S,06800.40829,W,222416.00,A,A*65
$GPRMC,222417.00,A,3856.34635,S,06800.40526,W,13.272,147.10,271114,,,A*53
$GPVTG,147.10,T,,M,13.272,N,24.579,K,A*36
$GPGGA,222417.00,3856.34635,S,06800.40526,W,1,05,1.79,276.7,M,22.5,M,,*5C
$GPGSA,A,3,29,31,05,25,12,,,,,,,,2.93,1.79,2.32*0E
$GPGSV,2,1,06,02,06,137,16,05,21,106,11,12,20,058,18,25,60,063,07*7D
$GPGSV,2,2,06,29,68,170,26,31,46,264,25*7F
$GPGLL,3856.34635,S,06800.40526,W,222417.00,A,A*62
$GPRMC,222418.00,A,3856.34939,S,06800.40215,W,13.439,146.63,271114,,,A*54
$GPVTG,146.63,T,,M,13.439,N,24.889,K,A*38
$GPGGA,222418.00,3856.34939,S,06800.40215,W,1,05,1.79,277.7,M,22.5,M,,*56
$GPGSA,A,3,29,31,05,25,12,,,,,,,,2.93,1.79,2.32*0E
$GPGSV,2,1,06,02,06,137,14,05,21,106,10,12,20,058,21,25,60,063,07*74
$GPGSV,2,2,06,29,68,170,26,31,46,264,23*79
$GPGLL,3856.34939,S,06800.40215,W,222418.00,A,A*69
$GPRMC,222419.00,A,3856.35397,S,06800.39828,W,14.794,146.60,271114,,,A*50
$GPVTG,146.60,T,,M,14.794,N,27.399,K,A*31
$GPGGA,222419.00,3856.35397,S,06800.39828,W,1,05,1.79,278.5,M,22.5,M,,*5F
$GPGSA,A,3,29,31,05,25,12,,,,,,,,2.93,1.79,2.32*0E
$GPGSV,2,1,06,02,06,137,16,05,21,106,11,12,20,058,24,25,60,063,07*72
$GPGSV,2,2,06,29,68,168,26,31,46,264,20*73
$GPGLL,3856.35397,S,06800.39828,W,222419.00,A,A*6D
$GPRMC,222420.00,A,3856.35823,S,06800.39449,W,15.591,146.23,271114,,,A*54
$GPVTG,146.23,T,,M,15.591,N,28.875,K,A*36
$GPGGA,222420.00,3856.35823,S,06800.39449,W,1,05,1.79,279.1,M,22.5,M,,*5F
$GPGSA,A,3,29,31,05,25,12,,,,,,,,2.93,1.79,2.32*0E
$GPGSV,2,1,06,02,06,137,17,05,21,106,12,12,20,058,24,25,60,063,07*70
$GPGSV,2,2,06,29,68,168,27,31,46,264,22*70
$GPGLL,3856.35823,S,06800.39449,W,222420.00,A,A*68
$GPRMC,222421.00,A,3856.36255,S,06800.39073,W,16.311,146.17,271114,,,A*5A
$GPVTG,146.17,T,,M,16.311,N,30.208,K,A*35
$GPGGA,222421.00,3856.36255,S,06800.39073,W,1,05,1.79,279.8,M,22.5,M,,*52
$GPGSA,A,3,29,31,05,25,12,,,,,,,,2.93,1.79,2.32*0E
$GPGSV,2,1,06,02,06,137,18,05,21,106,12,12,20,058,24,25,60,063,07*7F
$GPGSV,2,2,06,29,68,168,28,31,46,265,23*7F
$GPGLL,3856.36255,S,06800.39073,W,222421.00,A,A*6C
$GPRMC,222422.00,A,3856.36683,S,06800.38755,W,16.597,148.06,271114,,,A*52
$GPVTG,148.06,T,,M,16.597,N,30.738,K,A*35
$GPGGA,222422.00,3856.36683,S,06800.38755,W,1,05,1.79,280.6,M,22.5,M,,*54
$GPGSA,A,3,29,31,05,25,12,,,,,,,,2.93,1.79,2.32*0E
$GPGSV,2,1,06,02,06,137,21,05,21,106,10,12,20,058,22,25,60,063,07*71
$GPGSV,2,2,06,29,68,168,28,31,46,265,24*78
$GPGLL,3856.36683,S,06800.38755,W,222422.00,A,A*62
$GPRMC,222423.00,A,3856.37063,S,06800.38385,W,16.693,146.46,271114,,,A*5E
$GPVTG,146.46,T,,M,16.693,N,30.915,K,A*39
$GPGGA,222423.00,3856.37063,S,06800.38385,W,1,05,1.79,281.1,M,22.5,M,,*53
$GPGSA,A,3,29,31,05,25,12,,,,,,,,2.93,1.79,2.32*0E
$GPGSV,2,1,06,02,06,137,24,05,21,106,12,12,20,058,21,25,60,063,17*74
$GPGSV,2,2,06,29,68,168,28,31,46,265,26*7A
$GPGLL,3856.37063,S,06800.38385,W,222423.00,A,A*63
$GPRMC,222424.00,A,3856.37482,S,06800.38015,W,16.950,145.65,271114,,,A*5A
$GPVTG,145.65,T,,M,16.950,N,31.392,K,A*3F
$GPGGA,222424.00,3856.37482,S,06800.38015,W,1,05,1.79,281.1,M,22.5,M,,*55
$GPGSA,A,3,29,31,05,25,12,,,,,,,,2.93,1.79,2.32*0E
$GPGSV,2,1,06,02,06,137,25,05,21,106,12,12,20,058,20,25,60,063,17*74
$GPGSV,2,2,06,29,68,168,29,31,46,265,26*7B
$GPGLL,3856.37482,S,06800.38015,W,222424.00,A,A*65
$GPRMC,222425.00,A,3856.37870,S,06800.37727,W,16.611,147.21,271114,,,A*5B
$GPVTG,147.21,T,,M,16.611,N,30.763,K,A*3C
$GPGGA,222425.00,3856.37870,S,06800.37727,W,1,05,1.79,281.3,M,22.5,M,,*5E
$GPGSA,A,3,29,31,05,25,12,,,,,,,,2.93,1.79,2.32*0E
$GPGSV,2,1,06,02,06,137,24,05,21,106,14,12,20,058,24,25,60,063,17*77
$GPGSV,2,2,06,29,68,168,30,31,46,265,26*73
$GPGLL,3856.37870,S,06800.37727,W,222425.00,A,A*6C
$GPRMC,222426.00,A,3856.38242,S,06800.37452,W,16.133,147.93,271114,,,A*53
$GPVTG,147.93,T,,M,16.133,N,29.878,K,A*3F
$GPGGA,222426.00,3856.38242,S,06800.37452,W,1,05,1.79,281.2,M,22.5,M,,*59
$GPGSA,A,3,29,31,05,25,12,,,,,,,,2.93,1.79,2.32*0E
$GPGSV,2,1,06,02,06,137,25,05,21,106,17,12,20,058,26,25,60,063,11*71
$GPGSV,2,2,06,29,68,168,30,31,46,265,26*73
$GPGLL,3856.38242,S,06800.37452,W,222426.00,A,A*6A
$GPRMC,222427.00,A,3856.38600,S,06800.37190,W,15.634,148.38,271114,,,A*56
$GPVTG,148.38,T,,M,15.634,N,28.954,K,A*3C
$GPGGA,222427.00,3856.38600,S,06800.37190,W,1,05,1.79,281.0,M,22.5,M,,*53
$GPGSA,A,3,29,31,05,25,12,,,,,,,,2.93,1.79,2.32*0E
$GPGSV,2,1,06,02,06,137,23,05,21,106,17,12,20,058,27,25,60,063,19*7E
$GPGSV,2,2,06,29,68,168,30,31,46,265,25*70
$GPGLL,3856.38600,S,06800.37190,W,222427.00,A,A*62
$GPRMC,222428.00,A,3856.38973,S,06800.36987,W,15.066,151.03,271114,,,A*5C
$GPVTG,151.03,T,,M,15.066,N,27.902,K,A*31
$GPGGA,222428.00,3856.38973,S,06800.36987,W,1,05,1.79,280.7,M,22.5,M,,*5E
$GPGSA,A,3,29,31,05,25,12,,,,,,,,2.93,1.79,2.32*0E
$GPGSV,2,1,06,02,06,137,21,05,21,106,18,12,20,058,27,25,60,063,22*7B
$GPGSV,2,2,06,29,68,168,29,31,46,265,27*7A
$GPGLL,3856.38973,S,06800.36987,W,222428.00,A,A*69
$GPRMC,222429.00,A,3856.39357,S,06800.36791,W,14.859,154.06,271114,,,A*5C
$GPVTG,154.06,T,,M,14.859,N,27.518,K,A*33
$GPGGA,222429.00,3856.39357,S,06800.36791,W,1,05,1.79,280.9,M,22.5,M,,*55
$GPGSA,A,3,29,31,05,25,12,,,,,,,,2.93,1.79,2.32*0E
$GPGSV,2,1,06,02,06,137,17,05,21,106,23,12,20,058,24,25,60,063,22*75
$GPGSV,2,2,06,29,68,168,27,31,46,265,25*76
$GPGLL,3856.39357,S,06800.36791,W,222429.00,A,A*6C
$GPRMC,222430.00,A,3856.39764,S,06800.36693,W,14.679,159.76,271114,,,A*55
$GPVTG,159.76,T,,M,14.679,N,27.185,K,A*35
$GPGGA,222430.00,3856.39764,S,06800.36693,W,1,05,1.79,280.8,M,22.5,M,,*5B
$GPGSA,A,3,29,31,05,25,12,,,,,,,,2.93,1.79,2.32*0E
$GPGSV,2,1,06,02,06,137,18,05,21,106,25,12,20,058,23,25,60,063,25*7C
$GPGSV,2,2,06,29,68,168,29,31,46,265,24*79
$GPGLL,3856.39764,S,06800.36693,W,222430.00,A,A*63
$GPRMC,222431.00,A,3856.40237,S,06800.36600,W,15.295,165.04,271114,,,A*5E
$GPVTG,165.04,T,,M,15.295,N,28.326,K,A*3C
$GPGGA,222431.00,3856.40237,S,06800.36600,W,1,05,1.79,280.5,M,22.5,M,,*50
$GPGSA,A,3,29,31,05,25,12,,,,,,,,2.93,1.79,2.32*0E
$GPGSV,2,1,06,02,06,137,20,05,21,106,23,12,20,058,19,25,60,063,27*7A
$GPGSV,2,2,06,29,68,168,32,31,46,265,23*74
$GPGLL,3856.40237,S,06800.36600,W,222431.00,A,A*65
$GPRMC,222432.00,A,3856.40702,S,06800.36530,W,15.633,170.30,271114,,,A*55
$GPVTG,170.30,T,,M,15.633,N,28.951,K,A*3D
$GPGGA,222432.00,3856.40702,S,06800.36530,W,1,05,1.79,280.3,M,22.5,M,,*56
$GPGSA,A,3,29,31,05,25,12,,,,,,,,2.93,1.79,2.32*0E
$GPGSV,2,1,06,02,06,137,20,05,21,106,21,12,20,058,18,25,60,063,28*76
$GPGSV,2,2,06,29,68,168,33,31,46,265,25*73
$GPGLL,3856.40702,S,06800.36530,W,222432.00,A,A*65
$GPRMC,222433.00,A,3856.41148,S,06800.36490,W,15.762,172.83,271114,,,A*59
$GPVTG,172.83,T,,M,15.762,N,29.192,K,A*34
$GPGGA,222433.00,3856.41148,S,06800.36490,W,1,05,1.79,280.3,M,22.5,M,,*55
$GPGSA,A,3,29,31,05,25,12,,,,,,,,2.93,1.79,2.32*0E
$GPGSV,2,1,06,02,06,137,19,05,21,106,19,12,20,058,20,25,60,063,29*7D
$GPGSV,2,2,06,29,68,168,30,31,46,265,26*73
$GPGLL,3856.41148,S,06800.36490,W,222433.00,A,A*66
$GPRMC,222434.00,A,3856.41541,S,06800.36468,W,15.281,173.66,271114,,,A*56
$GPVTG,173.66,T,,M,15.281,N,28.301,K,A*3F
$GPGGA,222434.00,3856.41541,S,06800.36468,W,1,05,1.79,280.3,M,22.5,M,,*58
$GPGSA,A,3,29,31,05,25,12,,,,,,,,2.93,1.79,2.32*0E
$GPGSV,2,1,06,02,06,137,20,05,21,106,19,12,20,058,21,25,60,063,29*76
$GPGSV,2,2,06,29,68,168,31,31,46,265,27*73
$GPGLL,3856.41541,S,06800.36468,W,222434.00,A,A*6B
$GPRMC,222435.00,A,3856.41895,S,06800.36445,W,14.362,174.25,271114,,,A*51
$GPVTG,174.25,T,,M,14.362,N,26.598,K,A*3A
$GPGGA,222435.00,3856.41895,S,06800.36445,W,1,05,1.79,280.7,M,22.5,M,,*56
$GPGSA,A,3,29,31,05,25,12,,,,,,,,2.92,1.79,2.32*0F
$GPGSV,2,1,06,02,06,137,18,05,21,106,19,12,20,058,22,25,60,063,29*7E
$GPGSV,2,2,06,29,68,168,31,31,46,265,27*73
$GPGLL,3856.41895,S,06800.36445,W,222435.00,A,A*61
$GPRMC,222436.00,A,3856.42253,S,06800.36420,W,13.733,174.41,271114,,,A*57
$GPVTG,174.41,T,,M,13.733,N,25.434,K,A*3B
$GPGGA,222436.00,3856.42253,S,06800.36420,W,1,05,1.78,280.7,M,22.5,M,,*54
$GPGSA,A,3,29,31,05,25,12,,,,,,,,2.92,1.78,2.32*0E
$GPGSV,2,1,06,02,06,137,18,05,21,106,18,12,20,058,21,25,60,063,28*7D
$GPGSV,2,2,06,29,68,168,32,31,46,265,26*71
$GPGLL,3856.42253,S,06800.36420,W,222436.00,A,A*62
$GPRMC,222437.00,A,3856.42633,S,06800.36395,W,13.699,174.78,271114,,,A*56
$GPVTG,174.78,T,,M,13.699,N,25.370,K,A*37
$GPGGA,222437.00,3856.42633,S,06800.36395,W,1,05,1.78,280.7,M,22.5,M,,*5E
$GPGSA,A,3,29,31,05,25,12,,,,,,,,2.92,1.78,2.32*0E
$GPGSV,2,1,06,02,06,137,19,05,21,106,17,12,20,058,20,25,60,063,28*72
$GPGSV,2,2,06,29,68,168,33,31,46,265,25*73
$GPGLL,3856.42633,S,06800.36395,W,222437.00,A,A*68
$GPRMC,222438.00,A,3856.42982,S,06800.36367,W,13.265,174.70,271114,,,A*5E
$GPVTG,174.70,T,,M,13.265,N,24.566,K,A*38
$GPGGA,222438.00,3856.42982,S,06800.36367,W,1,05,1.78,280.5,M,22.5,M,,*5B
$GPGSA,A,3,29,31,05,25,12,,,,,,,,2.92,1.78,2.32*0E
$GPGSV,2,1,06,02,06,137,19,05,21,106,18,12,20,058,19,25,60,063,26*79
$GPGSV,2,2,06,29,68,168,32,31,46,265,24*73
$GPGLL,3856.42982,S,06800.36367,W,222438.00,A,A*6F
$GPRMC,222439.00,A,3856.43304,S,06800.36374,W,12.597,175.52,271114,,,A*52
$GPVTG,175.52,T,,M,12.597,N,23.330,K,A*30
$GPGGA,222439.00,3856.43304,S,06800.36374,W,1,05,1.78,280.1,M,22.5,M,,*59
$GPGSA,A,3,29,31,05,25,12,,,,,,,,2.92,1.78,2.32*0E
$GPGSV,2,1,06,02,06,137,18,05,21,106,20,12,20,058,19,25,60,063,23*76
$GPGSV,2,2,06,29,68,168,32,31,46,265,22*75
$GPGLL,3856.43304,S,06800.36374,W,222439.00,A,A*69
$GPRMC,222440.00,A,3856.43572,S,06800.36377,W,11.410,175.94,271114,,,A*5F
$GPVTG,175.94,T,,M,11.410,N,21.132,K,A*35
$GPGGA,222440.00,3856.43572,S,06800.36377,W,1,05,1.78,279.7,M,22.5,M,,*53
$GPGSA,A,3,29,31,05,25,12,,,,,,,,2.92,1.78,2.32*0E
$GPGSV,2,1,06,02,06,137,16,05,21,106,22,12,20,058,22,25,60,063,19*7B
$GPGSV,2,2,06,29,68,168,33,31,46,265,25*73
$GPGLL,3856.43572,S,06800.36377,W,222440.00,A,A*63
$GPRMC,222441.00,A,3856.43765,S,06800.36396,W,9.773,176.30,271114,,,A*67
$GPVTG,176.30,T,,M,9.773,N,18.099,K,A*0D
$GPGGA,222441.00,3856.43765,S,06800.36396,W,1,05,1.78,279.0,M,22.5,M,,*5E
$GPGSA,A,3,29,31,05,25,12,,,,,,,,2.92,1.78,2.32*0E
$GPGSV,2,1,06,02,06,137,13,05,21,106,21,12,20,058,23,25,60,063,15*70
$GPGSV,2,2,06,29,68,168,33,31,46,265,26*70
$GPGLL,3856.43765,S,06800.36396,W,222441.00,A,A*69
$GPRMC,222442.00,A,3856.43984,S,06800.36421,W,9.028,177.87,271114,,,A*6A
$GPVTG,177.87,T,,M,9.028,N,16.719,K,A*08
$GPGGA,222442.00,3856.43984,S,06800.36421,W,1,05,1.78,278.6,M,22.5,M,,*50
$GPGSA,A,3,29,31,05,25,12,,,,,,,,2.92,1.78,2.32*0E
$GPGSV,2,1,06,02,06,137,10,05,21,106,22,12,20,058,22,25,60,063,20*77
$GPGSV,2,2,06,29,68,168,32,31,46,265,27*70
$GPGLL,3856.43984,S,06800.36421,W,222442.00,A,A*60
$GPRMC,222443.00,A,3856.44163,S,06800.36405,W,8.093,177.64,271114,,,A*67
$GPVTG,177.64,T,,M,8.093,N,14.988,K,A*00
$GPGGA,222443.00,3856.44163,S,06800.36405,W,1,05,1.78,278.5,M,22.5,M,,*52
$GPGSA,A,3,29,31,05,25,12,,,,,,,,2.92,1.78,2.32*0E
$GPGSV,2,1,06,02,06,137,12,05,21,106,23,12,20,058,21,25,60,063,21*76
$GPGSV,2,2,06,29,68,168,25,31,46,265,26*77
$GPGLL,3856.44163,S,06800.36405,W,222443.00,A,A*61
$GPRMC,222444.00,A,3856.44338,S,06800.36521,W,7.626,183.32,271114,,,A*64
$GPVTG,183.32,T,,M,7.626,N,14.124,K,A*01
$GPGGA,222444.00,3856.44338,S,06800.36521,W,1,05,1.78,278.5,M,22.5,M,,*5E
$GPGSA,A,3,29,31,05,25,12,,,,,,,,2.92,1.78,2.32*0E
$GPGSV,2,1,06,02,06,137,11,05,21,106,25,12,20,058,22,25,60,063,24*75
$GPGSV,2,2,06,29,68,168,31,31,46,265,24*70
$GPGLL,3856.44338,S,06800.36521,W,222444.00,A,A*6D
$GPRMC,222445.00,A,3856.44431,S,06800.36757,W,7.178,194.72,271114,,,A*66
$GPVTG,194.72,T,,M,7.178,N,13.293,K,A*07
$GPGGA,222445.00,3856.44431,S,06800.36757,W,1,05,1.78,278.2,M,22.5,M,,*55
$GPGSA,A,3,29,31,05,25,12,,,,,,,,2.92,1.78,2.32*0E
$GPGSV,2,1,06,02,06,137,09,05,21,106,24,12,20,058,22,25,60,063,25*7C
$GPGSV,2,2,06,29,68,168,29,31,46,265,30*7C
$GPGLL,3856.44431,S,06800.36757,W,222445.00,A,A*61
$GPRMC,222446.00,A,3856.44605,S,06800.37196,W,9.631,215.66,271114,,,A*61
$GPVTG,215.66,T,,M,9.631,N,17.837,K,A*0C
$GPGGA,222446.00,3856.44605,S,06800.37196,W,1,05,1.78,277.6,M,22.5,M,,*52
$GPGSA,A,3,29,31,05,25,12,,,,,,,,2.92,1.78,2.32*0E
$GPGSV,2,1,06,02,06,137,,05,21,106,23,12,20,058,21,25,60,063,31*74
$GPGSV,2,2,06,29,68,168,23,31,46,265,32*74
$GPGLL,3856.44605,S,06800.37196,W,222446.00,A,A*6D
$GPRMC,222447.00,A,3856.44594,S,06800.37723,W,11.738,234.93,271114,,,A*5B
$GPVTG,234.93,T,,M,11.738,N,21.739,K,A*30
$GPGGA,222447.00,3856.44594,S,06800.37723,W,1,05,1.78,277.9,M,22.5,M,,*5F
$GPGSA,A,3,29,31,05,25,12,,,,,,,,2.92,1.78,2.32*0E
$GPGSV,2,1,06,02,06,137,,05,21,106,25,12,20,058,19,25,60,063,30*78
$GPGSV,2,2,06,29,68,168,22,31,46,265,33*74
$GPGLL,3856.44594,S,06800.37723,W,222447.00,A,A*6F
$GPRMC,222448.00,A,3856.44580,S,06800.38193,W,12.625,247.06,271114,,,A*55
$GPVTG,247.06,T,,M,12.625,N,23.381,K,A*33
$GPGGA,222448.00,3856.44580,S,06800.38193,W,1,05,1.78,278.1,M,22.5,M,,*50
$GPGSA,A,3,29,31,05,25,12,,,,,,,,2.92,1.78,2.32*0E
$GPGSV,2,1,06,02,06,137,18,05,21,106,27,12,20,058,16,25,60,063,28*75
$GPGSV,2,2,06,29,68,168,20,31,46,265,33*76
$GPGLL,3856.44580,S,06800.38193,W,222448.00,A,A*67
$GPRMC,222449.00,A,3856.44580,S,06800.38709,W,14.124,255.90,271114,,,A*5D
$GPVTG,255.90,T,,M,14.124,N,26.158,K,A*3C
$GPGGA,222449.00,3856.44580,S,06800.38709,W,1,05,1.78,277.9,M,22.5,M,,*53
$GPGSA,A,3,29,31,05,25,12,,,,,,,,2.92,1.78,2.32*0E
$GPGSV,2,1,06,02,06,137,17,05,21,106,27,12,20,058,14,25,60,063,29*79
$GPGSV,2,2,06,29,68,168,20,31,46,265,33*76
$GPGLL,3856.44580,S,06800.38709,W,222449.00,A,A*63
$GPRMC,222450.00,A,3856.44688,S,06800.39288,W,15.778,260.60,271114,,,A*54
$GPVTG,260.60,T,,M,15.778,N,29.222,K,A*3A
$GPGGA,222450.00,3856.44688,S,06800.39288,W,1,05,1.78,277.1,M,22.5,M,,*55
$GPGSA,A,3,29,31,05,25,12,,,,,,,,2.92,1.78,2.32*0E
$GPGSV,2,1,06,02,06,137,14,05,21,106,24,12,20,058,13,25,60,063,31*77
$GPGSV,2,2,06,29,68,168,17,31,46,265,33*72
$GPGLL,3856.44688,S,06800.39288,W,222450.00,A,A*6D
$GPRMC,222451.00,A,3856.44802,S,06800.39901,W,17.006,259.83,271114,,,A*58
$GPVTG,259.83,T,,M,17.006,N,31.496,K,A*31
$GPGGA,222451.00,3856.44802,S,06800.39901,W,1,05,1.78,276.7,M,22.5,M,,*55
$GPGSA,A,3,29,31,05,25,12,,,,,,,,2.92,1.78,2.32*0E
$GPGSV,2,1,06,02,06,137,09,05,21,106,20,12,20,058,18,25,60,063,29*7D
$GPGSV,2,2,06,29,68,168,18,31,46,265,32*7C
$GPGLL,3856.44802,S,06800.39901,W,222451.00,A,A*6A
$GPRMC,222452.00,A,3856.45003,S,06800.40498,W,17.766,256.64,271114,,,A*57
$GPVTG,256.64,T,,M,17.766,N,32.902,K,A*35
$GPGGA,222452.00,3856.45003,S,06800.40498,W,1,05,1.78,276.7,M,22.5,M,,*5D
$GPGSA,A,3,29,31,05,25,12,,,,,,,,2.92,1.78,2.32*0E
$GPGSV,2,1,06,02,06,137,08,05,21,106,18,12,20,058,19,25,60,063,29*76
$GPGSV,2,2,06,29,68,168,25,31,46,265,30*70
$GPGLL,3856.45003,S,06800.40498,W,222452.00,A,A*62
$GPRMC,222453.00,A,3856.45295,S,06800.41133,W,18.942,251.97,271114,,,A*52
$GPVTG,251.97,T,,M,18.942,N,35.081,K,A*3C
$GPGGA,222453.00,3856.45295,S,06800.41133,W,1,05,1.78,276.8,M,22.5,M,,*5B
$GPGSA,A,3,29,31,05,25,12,,,,,,,,2.92,1.78,2.32*0E
$GPGSV,2,1,06,02,06,137,08,05,21,106,16,12,20,058,18,25,60,063,27*77
$GPGSV,2,2,06,29,68,168,25,31,46,265,29*78
$GPGLL,3856.45295,S,06800.41133,W,222453.00,A,A*6B
$GPRMC,222454.00,A,3856.45554,S,06800.41764,W,19.316,249.44,271114,,,A*56
$GPVTG,249.44,T,,M,19.316,N,35.772,K,A*3A
$GPGGA,222454.00,3856.45554,S,06800.41764,W,1,05,1.78,276.8,M,22.5,M,,*52
$GPGSA,A,3,29,31,05,25,12,,,,,,,,2.92,1.78,2.32*0E
$GPGSV,2,1,06,02,06,137,08,05,21,106,18,12,20,058,18,25,60,063,23*7D
$GPGSV,2,2,06,29,68,168,27,31,46,265,29*7A
$GPGLL,3856.45554,S,06800.41764,W,222454.00,A,A*62
$GPRMC,222455.00,A,3856.45847,S,06800.42402,W,19.835,246.99,271114,,,A*5D
$GPVTG,246.99,T,,M,19.835,N,36.735,K,A*3F
$GPGGA,222455.00,3856.45847,S,06800.42402,W,1,05,1.78,276.8,M,22.5,M,,*5C
$GPGSA,A,3,29,31,05,25,12,,,,,,,,2.92,1.78,2.32*0E
$GPGSV,2,1,06,02,06,137,08,05,21,106,21,12,20,058,20,25,60,063,23*7C
$GPGSV,2,2,06,29,68,168,27,31,46,265,29*7A
$GPGLL,3856.45847,S,06800.42402,W,222455.00,A,A*6C
$GPRMC,222456.00,A,3856.46161,S,06800.43049,W,20.332,244.81,271114,,,A*57
$GPVTG,244.81,T,,M,20.332,N,37.654,K,A*35
$GPGGA,222456.00,3856.46161,S,06800.43049,W,1,05,1.78,276.7,M,22.5,M,,*54
$GPGSA,A,3,29,31,05,25,12,,,,,,,,2.92,1.78,2.32*0E
$GPGSV,2,1,06,02,06,137,08,05,21,106,22,12,20,058,21,25,60,063,22*7F
$GPGSV,2,2,06,29,68,168,27,31,46,265,29*7A
$GPGLL,3856.46161,S,06800.43049,W,222456.00,A,A*6B
$GPRMC,222457.00,A,3856.46546,S,06800.43771,W,21.971,242.91,271114,,,A*50
$GPVTG,242.91,T,,M,21.971,N,40.690,K,A*36
$GPGGA,222457.00,3856.46546,S,06800.43771,W,1,05,1.78,276.6,M,22.5,M,,*59
$GPGSA,A,3,29,31,05,25,12,,,,,,,,2.92,1.78,2.32*0E
$GPGSV,2,1,06,02,06,137,08,05,21,106,22,12,20,058,20,25,60,063,22*7E
$GPGSV,2,2,06,29,68,168,28,31,46,265,28*74
$GPGLL,3856.46546,S,06800.43771,W,222457.00,A,A*67
$GPRMC,222458.00,A,3856.46929,S,06800.44505,W,23.038,241.44,271114,,,A*51
$GPVTG,241.44,T,,M,23.038,N,42.666,K,A*30
$GPGGA,222458.00,3856.46929,S,06800.44505,W,1,05,1.78,276.2,M,22.5,M,,*51
$GPGSA,A,3,29,31,05,25,12,,,,,,,,2.92,1.78,2.32*0E
$GPGSV,2,1,06,02,06,137,,05,21,106,21,12,20,058,20,25,60,063,23*74
$GPGSV,2,2,06,29,68,168,28,31,46,265,28*74
$GPGLL,3856.46929,S,06800.44505,W,222458.00,A,A*6B
$GPRMC,222459.00,A,3856.47298,S,06800.45256,W,23.813,240.59,271114,,,A*5C
$GPVTG,240.59,T,,M,23.813,N,44.101,K,A*3C
$GPGGA,222459.00,3856.47298,S,06800.45256,W,1,05,1.78,275.9,M,22.5,M,,*58
$GPGSA,A,3,29,31,05,25,12,,,,,,,,2.92,1.78,2.32*0E
$GPGSV,2,1,06,02,06,137,,05,21,106,21,12,20,058,19,25,60,063,25*78
$GPGSV,2,2,06,29,68,168,27,31,46,265,28*7B
$GPGLL,3856.47298,S,06800.45256,W,222459.00,A,A*6A
$GPRMC,222500.00,A,3856.47672,S,06800.45991,W,23.969,239.47,271114,,,A*5C
$GPVTG,239.47,T,,M,23.969,N,44.390,K,A*3B
$GPGGA,222500.00,3856.47672,S,06800.45991,W,1,05,1.78,275.4,M,22.5,M,,*58
$GPGSA,A,3,29,31,05,25,12,,,,,,,,2.92,1.78,2.32*0E
$GPGSV,2,1,06,02,06,137,,05,21,106,21,12,20,058,20,25,60,063,25*72
$GPGSV,2,2,06,29,68,168,27,31,46,265,28*7B
$GPGLL,3856.47672,S,06800.45991,W,222500.00,A,A*67
$GPRMC,222501.00,A,3856.48066,S,06800.46732,W,24.409,238.34,271114,,,A*5C
$GPVTG,238.34,T,,M,24.409,N,45.205,K,A*3E
$GPGGA,222501.00,3856.48066,S,06800.46732,W,1,05,1.78,275.3,M,22.5,M,,*56
$GPGSA,A,3,29,31,05,25,12,,,,,,,,2.92,1.78,2.32*0E
$GPGSV,2,1,06,02,06,137,,05,21,106,21,12,20,058,20,25,60,063,26*71
$GPGSV,2,2,06,29,68,168,27,31,46,265,28*7B
$GPGLL,3856.48066,S,06800.46732,W,222501.00,A,A*6E
$GPRMC,222502.00,A,3856.48378,S,06800.47458,W,24.015,238.60,271114,,,A*55
$GPVTG,238.60,T,,M,24.015,N,44.477,K,A*34
$GPGGA,222502.00,3856.48378,S,06800.47458,W,1,05,1.78,275.0,M,22.5,M,,*54
$GPGSA,A,3,29,31,05,25,12,,,,,,,,2.92,1.78,2.32*0E
$GPGSV,2,1,06,02,06,137,,05,21,106,20,12,20,058,20,25,60,063,26*70
$GPGSV,2,2,06,29,68,168,27,31,46,265,28*7B
$GPGLL,3856.48378,S,06800.47458,W,222502.00,A,A*6F
$GPRMC,222503.00,A,3856.48685,S,06800.48172,W,23.616,238.78,271114,,,A*5A
$GPVTG,238.78,T,,M,23.616,N,43.738,K,A*30
$GPGGA,222503.00,3856.48685,S,06800.48172,W,1,05,1.78,274.8,M,22.5,M,,*59
$GPGSA,A,3,29,31,05,25,12,,,,,,,,2.92,1.78,2.32*0E
$GPGSV,2,1,06,02,05,137,,05,21,106,19,12,20,058,20,25,60,063,26*79
$GPGSV,2,2,06,29,68,168,28,31,46,265,28*74
$GPGLL,3856.48685,S,06800.48172,W,222503.00,A,A*6B
$GPRMC,222504.00,A,3856.49023,S,06800.48882,W,23.489,238.41,271114,,,A*5E
$GPVTG,238.41,T,,M,23.489,N,43.502,K,A*35
$GPGGA,222504.00,3856.49023,S,06800.48882,W,1,05,1.78,274.5,M,22.5,M,,*5E
$GPGSA,A,3,29,31,05,25,12,,,,,,,,2.92,1.78,2.32*0E
$GPGSV,2,1,06,02,05,137,,05,21,106,19,12,20,058,20,25,60,063,25*7A
$GPGSV,2,2,06,29,68,168,28,31,46,265,28*74
$GPGLL,3856.49023,S,06800.48882,W,222504.00,A,A*61
$GPRMC,222505.00,A,3856.49339,S,06800.49588,W,23.235,238.67,271114,,,A*54
$GPVTG,238.67,T,,M,23.235,N,43.031,K,A*35
$GPGGA,222505.00,3856.49339,S,06800.49588,W,1,05,1.78,274.1,M,22.5,M,,*55
$GPGSA,A,3,29,31,05,25,12,,,,,,,,2.92,1.78,2.32*0E
$GPGSV,2,1,06,02,05,137,,05,21,106,18,12,20,058,20,25,60,063,24*7A
$GPGSV,2,2,06,29,68,168,28,31,46,265,28*74
$GPGLL,3856.49339,S,06800.49588,W,222505.00,A,A*6E
$GPRMC,222506.00,A,3856.49657,S,06800.50346,W,23.736,239.60,271114,,,A*56
$GPVTG,239.60,T,,M,23.736,N,43.959,K,A*32
$GPGGA,222506.00,3856.49657,S,06800.50346,W,1,05,1.77,274.1,M,22.5,M,,*58
$GPGSA,A,3,29,31,05,25,12,,,,,,,,2.92,1.77,2.32*01
$GPGSV,2,1,06,02,05,137,,05,21,107,19,12,20,058,20,25,60,063,24*7A
$GPGSV,2,2,06,29,68,168,28,31,46,265,28*74
$GPGLL,3856.49657,S,06800.50346,W,222506.00,A,A*6C
$GPRMC,222507.00,A,3856.50003,S,06800.51099,W,24.055,239.51,271114,,,A*5F
$GPVTG,239.51,T,,M,24.055,N,44.549,K,A*3F
$GPGGA,222507.00,3856.50003,S,06800.51099,W,1,05,1.77,273.9,M,22.5,M,,*59
$GPGSA,A,3,29,31,05,25,12,,,,,,,,2.92,1.77,2.32*01
$GPGSV,2,1,06,02,05,137,,05,21,107,18,12,20,058,19,25,60,063,24*71
$GPGSV,2,2,06,29,68,168,29,31,46,265,28*75
$GPGLL,3856.50003,S,06800.51099,W,222507.00,A,A*62
$GPRMC,222508.00,A,3856.50326,S,06800.51821,W,23.565,239.38,271114,,,A*51
$GPVTG,239.38,T,,M,23.565,N,43.642,K,A*3E
$GPGGA,222508.00,3856.50326,S,06800.51821,W,1,05,1.77,273.3,M,22.5,M,,*53
$GPGSA,A,3,29,31,05,25,12,,,,,,,,2.92,1.77,2.32*01
$GPGSV,2,1,06,02,05,137,,05,21,107,19,12,20,058,19,25,60,063,24*70
$GPGSV,2,2,06,29,68,168,29,31,46,265,28*75
$GPGLL,3856.50326,S,06800.51821,W,222508.00,A,A*62
$GPRMC,222509.00,A,3856.50657,S,06800.52544,W,23.421,239.41,271114,,,A*51
$GPVTG,239.41,T,,M,23.421,N,43.375,K,A*30
$GPGGA,222509.00,3856.50657,S,06800.52544,W,1,05,1.77,273.1,M,22.5,M,,*5E
