Stable Library
=========================================
Native lib Version = RXTX-2.2pre2
Java lib Version   = RXTX-2.1-7
WARNING:  RXTX Version mismatch
	Jar version = RXTX-2.1-7
	native lib Version = RXTX-2.2pre2
$GPGLL,3857.08047,S,06801.47267,W,024317.00,A,A*68
$GPRMC,024318.00,A,3857.08169,S,06801.47072,W,6.507,129.52,171214,,,A*62
$GPGLL,3857.08169,S,06801.47072,W,024318.00,A,A*6C
$GPRMC,024319.00,A,3857.08386,S,06801.46958,W,6.019,145.35,171214,,,A*61
$GPGLL,3857.08386,S,06801.46958,W,024319.00,A,A*6E
$GPRMC,024320.00,A,3857.08603,S,06801.46863,W,6.867,160.04,171214,,,A*6E
$GPGLL,3857.08603,S,06801.46863,W,024320.00,A,A*65
$GPRMC,024321.00,A,3857.08759,S,06801.46829,W,5.510,162.02,171214,,,A*65
$GPGLL,3857.08759,S,06801.46829,W,024321.00,A,A*64
$GPRMC,024322.00,A,3857.08836,S,06801.46837,W,2.931,163.85,171214,,,A*69
$GPGLL,3857.08836,S,06801.46837,W,024322.00,A,A*6E
$GPRMC,024323.00,V,,,,,,,171214,,,N*79
$GPGLL,,,,,024323.00,V,N*4E
$GPRMC,024324.00,V,,,,,,,171214,,,N*7E
$GPGLL,,,,,024324.00,V,N*49
$GPRMC,024325.00,V,,,,,,,171214,,,N*7F
$GPGLL,,,,,024325.00,V,N*48
$GPRMC,024326.00,V,,,,,,,171214,,,N*7C
$GPGLL,,,,,024326.00,V,N*4B
$GPRMC,024327.00,V,,,,,,,171214,,,N*7D
$GPGLL,,,,,024327.00,V,N*4A
$GPRMC,024328.00,A,3857.09829,S,06801.48249,W,14.559,237.25,171214,,,A*5C
$GPGLL,3857.09829,S,06801.48249,W,024328.00,A,A*66
$GPRMC,024329.00,A,3857.10282,S,06801.48751,W,16.172,233.93,171214,,,A*54
$GPGLL,3857.10282,S,06801.48751,W,024329.00,A,A*68
$GPRMC,024330.00,A,3857.10779,S,06801.49147,W,15.236,228.45,171214,,,A*5C
$GPGLL,3857.10779,S,06801.49147,W,024330.00,A,A*61
$GPRMC,024331.00,A,3857.11262,S,06801.49538,W,15.162,229.76,171214,,,A*5C
$GPGLL,3857.11262,S,06801.49538,W,024331.00,A,A*62
$GPRMC,024332.00,A,3857.11732,S,06801.49898,W,15.850,228.13,171214,,,A*52
$GPGLL,3857.11732,S,06801.49898,W,024332.00,A,A*66
$GPRMC,024333.00,V,,,,,,,171214,,,N*78
$GPGLL,,,,,024333.00,V,N*4F
$GPRMC,024334.00,A,3857.12820,S,06801.50805,W,15.270,224.33,171214,,,A*51
$GPGLL,3857.12820,S,06801.50805,W,024334.00,A,A*63
$GPRMC,024335.00,A,3857.13159,S,06801.51129,W,13.521,221.27,171214,,,A*55
$GPGLL,3857.13159,S,06801.51129,W,024335.00,A,A*62
$GPRMC,024336.00,A,3857.13556,S,06801.51324,W,13.594,209.94,171214,,,A*5E
$GPGLL,3857.13556,S,06801.51324,W,024336.00,A,A*65
$GPRMC,024337.00,A,3857.13956,S,06801.51368,W,13.564,196.63,171214,,,A*59
$GPGLL,3857.13956,S,06801.51368,W,024337.00,A,A*60
$GPRMC,024338.00,V,,,,,,,171214,,,N*73
$GPGLL,,,,,024338.00,V,N*44
$GPRMC,024339.00,V,,,,,,,171214,,,N*72
$GPGLL,,,,,024339.00,V,N*45
$GPRMC,024340.00,V,,,,,,,171214,,,N*7C
$GPGLL,,,,,024340.00,V,N*4B
$GPRMC,024341.00,V,,,,,,,171214,,,N*7D
$GPGLL,,,,,024341.00,V,N*4A
$GPRMC,024342.00,V,,,,,,,171214,,,N*7E
$GPGLL,,,,,024342.00,V,N*49
$GPRMC,024343.00,V,,,,,,,171214,,,N*7F
$GPGLL,,,,,024343.00,V,N*48
$GPRMC,024344.00,A,3857.15059,S,06801.49516,W,3.199,,171214,,,A*79
$GPGLL,3857.15059,S,06801.49516,W,024344.00,A,A*62
$GPRMC,024345.00,A,3857.15047,S,06801.49443,W,2.725,,171214,,,A*76
$GPGLL,3857.15047,S,06801.49443,W,024345.00,A,A*6D
$GPRMC,024346.00,V,,,,,,,171214,,,N*7A
$GPGLL,,,,,024346.00,V,N*4D
$GPRMC,024347.00,V,,,,,,,171214,,,N*7B
$GPGLL,,,,,024347.00,V,N*4C
$GPRMC,024348.00,V,,,,,,,171214,,,N*74
$GPGLL,,,,,024348.00,V,N*43
$GPRMC,024349.00,V,,,,,,,171214,,,N*75
$GPGLL,,,,,024349.00,V,N*42
$GPRMC,024350.00,V,,,,,,,171214,,,N*7D
$GPGLL,,,,,024350.00,V,N*4A
$GPRMC,024351.00,A,3857.14150,S,06801.47848,W,15.967,49.25,171214,,,A*66
$GPGLL,3857.14150,S,06801.47848,W,024351.00,A,A*67
$GPRMC,024352.00,A,3857.13730,S,06801.47485,W,17.871,48.08,171214,,,A*65
$GPGLL,3857.13730,S,06801.47485,W,024352.00,A,A*6E
$GPRMC,024353.00,A,3857.13477,S,06801.47090,W,17.821,46.80,171214,,,A*6F
$GPGLL,3857.13477,S,06801.47090,W,024353.00,A,A*6F
$GPRMC,024354.00,A,3857.13179,S,06801.46550,W,19.080,47.06,171214,,,A*69
$GPGLL,3857.13179,S,06801.46550,W,024354.00,A,A*6B
$GPRMC,024355.00,V,,,,,,,171214,,,N*78
$GPGLL,,,,,024355.00,V,N*4F
$GPRMC,024356.00,V,,,,,,,171214,,,N*7B
$GPGLL,,,,,024356.00,V,N*4C
$GPRMC,024357.00,V,,,,,,,171214,,,N*7A
$GPGLL,,,,,024357.00,V,N*4D
$GPRMC,024358.00,V,,,,,,,171214,,,N*75
$GPGLL,,,,,024358.00,V,N*42
$GPRMC,024359.00,V,,,,,,,171214,,,N*74
$GPGLL,,,,,024359.00,V,N*43
$GPRMC,024400.00,V,,,,,,,171214,,,N*7F
$GPGLL,,,,,024400.00,V,N*48
$GPRMC,024401.00,A,3857.10321,S,06801.42388,W,25.518,45.33,171214,,,A*6A
$GPGLL,3857.10321,S,06801.42388,W,024401.00,A,A*67
$GPRMC,024402.00,A,3857.09822,S,06801.41733,W,25.805,45.70,171214,,,A*68
$GPGLL,3857.09822,S,06801.41733,W,024402.00,A,A*63
$GPRMC,024403.00,A,3857.09336,S,06801.41085,W,25.338,46.04,171214,,,A*68
$GPGLL,3857.09336,S,06801.41085,W,024403.00,A,A*66
$GPRMC,024404.00,A,3857.08846,S,06801.40490,W,24.688,45.00,171214,,,A*6B
$GPGLL,3857.08846,S,06801.40490,W,024404.00,A,A*6D
$GPRMC,024405.00,A,3857.08351,S,06801.39846,W,25.099,45.74,171214,,,A*6A
$GPGLL,3857.08351,S,06801.39846,W,024405.00,A,A*68
$GPRMC,024406.00,A,3857.07857,S,06801.39230,W,25.087,45.68,171214,,,A*62
$GPGLL,3857.07857,S,06801.39230,W,024406.00,A,A*62
$GPRMC,024407.00,A,3857.07354,S,06801.38620,W,25.278,45.22,171214,,,A*63
$GPGLL,3857.07354,S,06801.38620,W,024407.00,A,A*6F
$GPRMC,024408.00,A,3857.06848,S,06801.38001,W,25.196,44.51,171214,,,A*68
$GPGLL,3857.06848,S,06801.38001,W,024408.00,A,A*62
$GPRMC,024409.00,A,3857.06354,S,06801.37387,W,24.705,44.75,171214,,,A*66
$GPGLL,3857.06354,S,06801.37387,W,024409.00,A,A*67
$GPRMC,024410.00,A,3857.05833,S,06801.36753,W,25.088,43.44,171214,,,A*6D
$GPGLL,3857.05833,S,06801.36753,W,024410.00,A,A*6A
$GPRMC,024411.00,A,3857.05300,S,06801.36122,W,25.525,41.95,171214,,,A*6B
$GPGLL,3857.05300,S,06801.36122,W,024411.00,A,A*60
$GPRMC,024412.00,A,3857.04760,S,06801.35498,W,26.071,42.01,171214,,,A*65
$GPGLL,3857.04760,S,06801.35498,W,024412.00,A,A*67
$GPRMC,024413.00,V,,,,,,,171214,,,N*7D
$GPGLL,,,,,024413.00,V,N*4A
$GPRMC,024414.00,V,,,,,,,171214,,,N*7A
$GPGLL,,,,,024414.00,V,N*4D
$GPRMC,024415.00,V,,,,,,,171214,,,N*7B
$GPGLL,,,,,024415.00,V,N*4C
$GPRMC,024416.00,V,,,,,,,171214,,,N*78
$GPGLL,,,,,024416.00,V,N*4F
$GPRMC,024417.00,V,,,,,,,171214,,,N*79
$GPGLL,,,,,024417.00,V,N*4E
$GPRMC,024418.00,A,3857.01447,S,06801.31524,W,28.919,49.92,171214,,,A*66
$GPGLL,3857.01447,S,06801.31524,W,024418.00,A,A*6C
$GPRMC,024419.00,A,3857.00883,S,06801.30782,W,28.981,47.56,171214,,,A*6A
$GPGLL,3857.00883,S,06801.30782,W,024419.00,A,A*67
$GPRMC,024420.00,A,3857.00510,S,06801.30055,W,25.083,57.82,171214,,,A*64
$GPGLL,3857.00510,S,06801.30055,W,024420.00,A,A*67
$GPRMC,024421.00,A,3857.00130,S,06801.29215,W,26.216,58.77,171214,,,A*65
$GPGLL,3857.00130,S,06801.29215,W,024421.00,A,A*6E
$GPRMC,024422.00,A,3856.99500,S,06801.28567,W,26.423,48.42,171214,,,A*64
$GPGLL,3856.99500,S,06801.28567,W,024422.00,A,A*68
$GPRMC,024423.00,V,,,,,,,171214,,,N*7E
$GPGLL,,,,,024423.00,V,N*49
$GPRMC,024424.00,V,,,,,,,171214,,,N*79
$GPGLL,,,,,024424.00,V,N*4E
$GPRMC,024425.00,V,,,,,,,171214,,,N*78
$GPGLL,,,,,024425.00,V,N*4F
$GPRMC,024426.00,V,,,,,,,171214,,,N*7B
$GPGLL,,,,,024426.00,V,N*4C
$GPRMC,024427.00,V,,,,,,,171214,,,N*7A
$GPGLL,,,,,024427.00,V,N*4D
$GPRMC,024428.00,V,,,,,,,171214,,,N*75
$GPGLL,,,,,024428.00,V,N*42
$GPRMC,024429.00,V,,,,,,,171214,,,N*74
$GPGLL,,,,,024429.00,V,N*43
$GPRMC,024430.00,V,,,,,,,171214,,,N*7C
$GPGLL,,,,,024430.00,V,N*4B
$GPRMC,024431.00,V,,,,,,,171214,,,N*7D
$GPGLL,,,,,024431.00,V,N*4A
$GPRMC,024432.00,V,,,,,,,171214,,,N*7E
$GPGLL,,,,,024432.00,V,N*49
$GPRMC,024433.00,V,,,,,,,171214,,,N*7F
$GPGLL,,,,,024433.00,V,N*48
$GPRMC,024434.00,V,,,,,,,171214,,,N*78
$GPGLL,,,,,024434.00,V,N*4F
$GPRMC,024435.00,A,3856.92045,S,06801.19037,W,29.542,40.97,171214,,,A*66
$GPGLL,3856.92045,S,06801.19037,W,024435.00,A,A*63
$GPRMC,024436.00,A,3856.91327,S,06801.18175,W,29.724,44.92,171214,,,A*64
$GPGLL,3856.91327,S,06801.18175,W,024436.00,A,A*62
$GPRMC,024437.00,A,3856.90636,S,06801.17361,W,29.515,44.45,171214,,,A*63
$GPGLL,3856.90636,S,06801.17361,W,024437.00,A,A*6F
$GPRMC,024438.00,A,3856.89949,S,06801.16534,W,31.189,43.14,171214,,,A*6F
$GPGLL,3856.89949,S,06801.16534,W,024438.00,A,A*68
$GPRMC,024439.00,A,3856.89320,S,06801.15856,W,28.275,41.37,171214,,,A*6A
$GPGLL,3856.89320,S,06801.15856,W,024439.00,A,A*66
$GPRMC,024440.00,A,3856.88646,S,06801.15151,W,29.542,43.10,171214,,,A*6B
$GPGLL,3856.88646,S,06801.15151,W,024440.00,A,A*62
$GPRMC,024441.00,A,3856.88018,S,06801.14353,W,30.608,44.37,171214,,,A*61
$GPGLL,3856.88018,S,06801.14353,W,024441.00,A,A*6F
$GPRMC,024442.00,A,3856.87328,S,06801.13557,W,31.219,41.64,171214,,,A*6E
$GPGLL,3856.87328,S,06801.13557,W,024442.00,A,A*66
$GPRMC,024443.00,A,3856.86702,S,06801.12720,W,30.888,43.67,171214,,,A*63
$GPGLL,3856.86702,S,06801.12720,W,024443.00,A,A*69
$GPRMC,024444.00,A,3856.85972,S,06801.11895,W,34.449,42.91,171214,,,A*61
$GPGLL,3856.85972,S,06801.11895,W,024444.00,A,A*66
$GPRMC,024445.00,V,,,,,,,171214,,,N*7E
$GPGLL,,,,,024445.00,V,N*49
$GPRMC,024446.00,V,,,,,,,171214,,,N*7D
$GPGLL,,,,,024446.00,V,N*4A
$GPRMC,024447.00,V,,,,,,,171214,,,N*7C
$GPGLL,,,,,024447.00,V,N*4B
$GPRMC,024448.00,V,,,,,,,171214,,,N*73
$GPGLL,,,,,024448.00,V,N*44
$GPRMC,024449.00,V,,,,,,,171214,,,N*72
$GPGLL,,,,,024449.00,V,N*45
$GPRMC,024450.00,V,,,,,,,171214,,,N*7A
$GPGLL,,,,,024450.00,V,N*4D
$GPRMC,024451.00,A,3856.81895,S,06801.06014,W,28.622,46.03,171214,,,A*63
$GPGLL,3856.81895,S,06801.06014,W,024451.00,A,A*69
$GPRMC,024452.00,A,3856.81298,S,06801.05180,W,29.059,46.45,171214,,,A*61
$GPGLL,3856.81298,S,06801.05180,W,024452.00,A,A*62
$GPRMC,024453.00,A,3856.80777,S,06801.04371,W,29.384,45.55,171214,,,A*69
$GPGLL,3856.80777,S,06801.04371,W,024453.00,A,A*6B
$GPRMC,024454.00,A,3856.80202,S,06801.03619,W,29.290,46.02,171214,,,A*60
$GPGLL,3856.80202,S,06801.03619,W,024454.00,A,A*67
$GPRMC,024455.00,A,3856.79690,S,06801.02852,W,28.912,46.29,171214,,,A*61
$GPGLL,3856.79690,S,06801.02852,W,024455.00,A,A*6F
$GPRMC,024456.00,A,3856.79153,S,06801.02148,W,27.708,45.64,171214,,,A*68
$GPGLL,3856.79153,S,06801.02148,W,024456.00,A,A*66
$GPRMC,024457.00,A,3856.78602,S,06801.01406,W,27.470,45.54,171214,,,A*68
$GPGLL,3856.78602,S,06801.01406,W,024457.00,A,A*69
$GPRMC,024458.00,A,3856.78082,S,06801.00748,W,25.919,45.55,171214,,,A*60
$GPGLL,3856.78082,S,06801.00748,W,024458.00,A,A*60
$GPRMC,024459.00,A,3856.77628,S,06801.00105,W,24.877,48.49,171214,,,A*6F
$GPGLL,3856.77628,S,06801.00105,W,024459.00,A,A*67
$GPRMC,024500.00,V,,,,,,,171214,,,N*7E
$GPGLL,,,,,024500.00,V,N*49
$GPRMC,024501.00,V,,,,,,,171214,,,N*7F
$GPGLL,,,,,024501.00,V,N*48
$GPRMC,024502.00,V,,,,,,,171214,,,N*7C
$GPGLL,,,,,024502.00,V,N*4B
$GPRMC,024503.00,V,,,,,,,171214,,,N*7D
$GPGLL,,,,,024503.00,V,N*4A
$GPRMC,024504.00,V,,,,,,,171214,,,N*7A
$GPGLL,,,,,024504.00,V,N*4D
$GPRMC,024505.00,V,,,,,,,171214,,,N*7B
$GPGLL,,,,,024505.00,V,N*4C
$GPRMC,024506.00,A,3856.73717,S,06800.95416,W,28.244,37.62,171214,,,A*60
$GPGLL,3856.73717,S,06800.95416,W,024506.00,A,A*6F
$GPRMC,024507.00,A,3856.73058,S,06800.94867,W,27.898,38.93,171214,,,A*63
$GPGLL,3856.73058,S,06800.94867,W,024507.00,A,A*69
$GPRMC,024508.00,A,3856.72474,S,06800.94209,W,28.578,41.30,171214,,,A*6E
$GPGLL,3856.72474,S,06800.94209,W,024508.00,A,A*6F
$GPRMC,024509.00,A,3856.71886,S,06800.93566,W,28.725,41.39,171214,,,A*67
$GPGLL,3856.71886,S,06800.93566,W,024509.00,A,A*65
$GPRMC,024510.00,A,3856.71293,S,06800.92925,W,28.148,41.69,171214,,,A*63
$GPGLL,3856.71293,S,06800.92925,W,024510.00,A,A*69
$GPRMC,024511.00,A,3856.70777,S,06800.92315,W,26.125,41.16,171214,,,A*68
$GPGLL,3856.70777,S,06800.92315,W,024511.00,A,A*6F
$GPRMC,024512.00,A,3856.70259,S,06800.91741,W,25.003,40.15,171214,,,A*60
$GPGLL,3856.70259,S,06800.91741,W,024512.00,A,A*63
$GPRMC,024513.00,A,3856.69721,S,06800.91130,W,26.040,40.17,171214,,,A*65
$GPGLL,3856.69721,S,06800.91130,W,024513.00,A,A*60
$GPRMC,024514.00,A,3856.69155,S,06800.90483,W,27.468,40.85,171214,,,A*6F
$GPGLL,3856.69155,S,06800.90483,W,024514.00,A,A*6E
$GPRMC,024515.00,A,3856.68574,S,06800.89814,W,28.420,41.34,171214,,,A*6A
$GPGLL,3856.68574,S,06800.89814,W,024515.00,A,A*63
$GPRMC,024516.00,A,3856.68003,S,06800.89154,W,27.490,42.05,171214,,,A*64
$GPGLL,3856.68003,S,06800.89154,W,024516.00,A,A*68
$GPRMC,024517.00,A,3856.67432,S,06800.88475,W,27.863,42.11,171214,,,A*6E
$GPGLL,3856.67432,S,06800.88475,W,024517.00,A,A*67
$GPRMC,024518.00,A,3856.66831,S,06800.87758,W,29.410,41.62,171214,,,A*6D
$GPGLL,3856.66831,S,06800.87758,W,024518.00,A,A*65
$GPRMC,024519.00,A,3856.66226,S,06800.87024,W,30.239,42.61,171214,,,A*69
$GPGLL,3856.66226,S,06800.87024,W,024519.00,A,A*64
$GPRMC,024520.00,A,3856.65615,S,06800.86281,W,30.621,43.60,171214,,,A*65
$GPGLL,3856.65615,S,06800.86281,W,024520.00,A,A*65
$GPRMC,024521.00,A,3856.65033,S,06800.85588,W,29.399,44.39,171214,,,A*6E
$GPGLL,3856.65033,S,06800.85588,W,024521.00,A,A*6B
$GPRMC,024522.00,A,3856.64458,S,06800.84815,W,30.005,44.92,171214,,,A*62
$GPGLL,3856.64458,S,06800.84815,W,024522.00,A,A*68
$GPRMC,024523.00,A,3856.63892,S,06800.84057,W,29.530,46.29,171214,,,A*69
$GPGLL,3856.63892,S,06800.84057,W,024523.00,A,A*6A
$GPRMC,024524.00,A,3856.63354,S,06800.83249,W,30.245,49.17,171214,,,A*6A
$GPGLL,3856.63354,S,06800.83249,W,024524.00,A,A*66
$GPRMC,024525.00,A,3856.62871,S,06800.82367,W,30.638,53.08,171214,,,A*61
$GPGLL,3856.62871,S,06800.82367,W,024525.00,A,A*66
$GPRMC,024526.00,A,3856.62407,S,06800.81504,W,30.147,55.65,171214,,,A*6D
$GPGLL,3856.62407,S,06800.81504,W,024526.00,A,A*68
$GPRMC,024527.00,A,3856.61920,S,06800.80588,W,30.320,57.81,171214,,,A*69
$GPGLL,3856.61920,S,06800.80588,W,024527.00,A,A*67
$GPRMC,024528.00,A,3856.61486,S,06800.79671,W,29.880,59.77,171214,,,A*6A
$GPGLL,3856.61486,S,06800.79671,W,024528.00,A,A*6A
$GPRMC,024529.00,A,3856.61096,S,06800.78769,W,30.070,62.03,171214,,,A*63
$GPGLL,3856.61096,S,06800.78769,W,024529.00,A,A*67
$GPRMC,024530.00,A,3856.60745,S,06800.77790,W,30.917,63.96,171214,,,A*6F
$GPGLL,3856.60745,S,06800.77790,W,024530.00,A,A*6E
$GPRMC,024531.00,A,3856.60430,S,06800.76842,W,29.819,66.27,171214,,,A*66
$GPGLL,3856.60430,S,06800.76842,W,024531.00,A,A*6F
$GPRMC,024532.00,A,3856.60172,S,06800.75886,W,28.155,70.04,171214,,,A*6B
$GPGLL,3856.60172,S,06800.75886,W,024532.00,A,A*64
$GPRMC,024533.00,A,3856.59957,S,06800.74968,W,26.872,73.11,171214,,,A*6A
$GPGLL,3856.59957,S,06800.74968,W,024533.00,A,A*60
$GPRMC,024534.00,A,3856.59778,S,06800.74178,W,23.985,74.74,171214,,,A*6F
$GPGLL,3856.59778,S,06800.74178,W,024534.00,A,A*6D
$GPRMC,024535.00,A,3856.59613,S,06800.73317,W,25.208,75.59,171214,,,A*68
$GPGLL,3856.59613,S,06800.73317,W,024535.00,A,A*6C
$GPRMC,024536.00,A,3856.59447,S,06800.72348,W,27.013,75.86,171214,,,A*6B
$GPGLL,3856.59447,S,06800.72348,W,024536.00,A,A*67
$GPRMC,024537.00,V,,,,,,,171214,,,N*7A
$GPGLL,,,,,024537.00,V,N*4D
$GPRMC,024538.00,V,,,,,,,171214,,,N*75
$GPGLL,,,,,024538.00,V,N*42
$GPRMC,024539.00,V,,,,,,,171214,,,N*74
$GPGLL,,,,,024539.00,V,N*43
$GPRMC,024540.00,V,,,,,,,171214,,,N*7A
$GPGLL,,,,,024540.00,V,N*4D
$GPRMC,024541.00,V,,,,,,,171214,,,N*7B
$GPGLL,,,,,024541.00,V,N*4C
$GPRMC,024542.00,A,3856.59186,S,06800.66450,W,25.283,92.13,171214,,,A*67
$GPGLL,3856.59186,S,06800.66450,W,024542.00,A,A*67
$GPRMC,024543.00,A,3856.59277,S,06800.65668,W,24.772,90.78,171214,,,A*64
$GPGLL,3856.59277,S,06800.65668,W,024543.00,A,A*61
$GPRMC,024544.00,A,3856.59227,S,06800.64827,W,23.365,89.80,171214,,,A*68
$GPGLL,3856.59227,S,06800.64827,W,024544.00,A,A*67
$GPRMC,024545.00,A,3856.59195,S,06800.63976,W,23.358,87.97,171214,,,A*67
$GPGLL,3856.59195,S,06800.63976,W,024545.00,A,A*6E
$GPRMC,024546.00,A,3856.59101,S,06800.63219,W,22.769,82.25,171214,,,A*60
$GPGLL,3856.59101,S,06800.63219,W,024546.00,A,A*62
$GPRMC,024547.00,A,3856.58894,S,06800.62638,W,21.648,73.67,171214,,,A*6A
$GPGLL,3856.58894,S,06800.62638,W,024547.00,A,A*61
$GPRMC,024548.00,A,3856.58561,S,06800.62045,W,19.880,58.28,171214,,,A*6D
$GPGLL,3856.58561,S,06800.62045,W,024548.00,A,A*65
$GPRMC,024549.00,A,3856.58133,S,06800.61651,W,18.793,40.50,171214,,,A*65
$GPGLL,3856.58133,S,06800.61651,W,024549.00,A,A*67
$GPRMC,024550.00,V,,,,,,,171214,,,N*7B
$GPGLL,,,,,024550.00,V,N*4C
$GPRMC,024551.00,V,,,,,,,171214,,,N*7A
$GPGLL,,,,,024551.00,V,N*4D
$GPRMC,024552.00,V,,,,,,,171214,,,N*79
$GPGLL,,,,,024552.00,V,N*4E
$GPRMC,024553.00,V,,,,,,,171214,,,N*78
$GPGLL,,,,,024553.00,V,N*4F
$GPRMC,024554.00,V,,,,,,,171214,,,N*7F
$GPGLL,,,,,024554.00,V,N*48
$GPRMC,024555.00,A,3856.55477,S,06800.62621,W,19.741,308.17,171214,,,A*56
$GPGLL,3856.55477,S,06800.62621,W,024555.00,A,A*66
$GPRMC,024556.00,A,3856.55119,S,06800.63240,W,21.051,306.17,171214,,,A*59
$GPGLL,3856.55119,S,06800.63240,W,024556.00,A,A*6A
$GPRMC,024557.00,A,3856.54827,S,06800.63884,W,21.144,303.24,171214,,,A*5F
$GPGLL,3856.54827,S,06800.63884,W,024557.00,A,A*6C
$GPRMC,024558.00,A,3856.54488,S,06800.64492,W,21.272,307.41,171214,,,A*54
$GPGLL,3856.54488,S,06800.64492,W,024558.00,A,A*66
$GPRMC,024559.00,A,3856.54123,S,06800.65038,W,20.446,311.66,171214,,,A*56
$GPGLL,3856.54123,S,06800.65038,W,024559.00,A,A*66
$GPRMC,024600.00,A,3856.53626,S,06800.65541,W,21.211,318.91,171214,,,A*53
$GPGLL,3856.53626,S,06800.65541,W,024600.00,A,A*67
$GPRMC,024601.00,A,3856.53124,S,06800.66013,W,21.816,321.58,171214,,,A*54
$GPGLL,3856.53124,S,06800.66013,W,024601.00,A,A*62
$GPRMC,024602.00,A,3856.52531,S,06800.66492,W,23.506,327.00,171214,,,A*5E
$GPGLL,3856.52531,S,06800.66492,W,024602.00,A,A*6D
$GPRMC,024603.00,A,3856.51961,S,06800.66945,W,24.037,329.05,171214,,,A*59
$GPGLL,3856.51961,S,06800.66945,W,024603.00,A,A*61
$GPRMC,024604.00,A,3856.51367,S,06800.67385,W,24.659,328.70,171214,,,A*58
$GPGLL,3856.51367,S,06800.67385,W,024604.00,A,A*6D
$GPRMC,024605.00,A,3856.50744,S,06800.67922,W,25.601,326.95,171214,,,A*53
$GPGLL,3856.50744,S,06800.67922,W,024605.00,A,A*6F
$GPRMC,024606.00,A,3856.50106,S,06800.68391,W,25.829,328.30,171214,,,A*58
$GPGLL,3856.50106,S,06800.68391,W,024606.00,A,A*61
$GPRMC,024607.00,A,3856.49408,S,06800.68908,W,27.579,329.61,171214,,,A*5F
$GPGLL,3856.49408,S,06800.68908,W,024607.00,A,A*69
$GPRMC,024608.00,A,3856.48806,S,06800.69358,W,26.400,330.82,171214,,,A*56
$GPGLL,3856.48806,S,06800.69358,W,024608.00,A,A*6B
$GPRMC,024609.00,A,3856.48135,S,06800.69820,W,27.105,332.11,171214,,,A*53
$GPGLL,3856.48135,S,06800.69820,W,024609.00,A,A*67
$GPRMC,024610.00,A,3856.47580,S,06800.70292,W,25.106,326.47,171214,,,A*52
$GPGLL,3856.47580,S,06800.70292,W,024610.00,A,A*61
$GPRMC,024611.00,A,3856.47105,S,06800.70766,W,23.221,321.09,171214,,,A*59
$GPGLL,3856.47105,S,06800.70766,W,024611.00,A,A*67
$GPRMC,024612.00,A,3856.46611,S,06800.71189,W,22.491,324.47,171214,,,A*5C
$GPGLL,3856.46611,S,06800.71189,W,024612.00,A,A*61
$GPRMC,024613.00,A,3856.45989,S,06800.71664,W,24.704,328.64,171214,,,A*50
$GPGLL,3856.45989,S,06800.71664,W,024613.00,A,A*69
$GPRMC,024614.00,A,3856.45442,S,06800.72128,W,24.113,325.66,171214,,,A*5E
$GPGLL,3856.45442,S,06800.72128,W,024614.00,A,A*68
$GPRMC,024615.00,A,3856.44863,S,06800.72587,W,24.071,324.98,171214,,,A*55
$GPGLL,3856.44863,S,06800.72587,W,024615.00,A,A*66
$GPRMC,024616.00,V,,,,,,,171214,,,N*7A
$GPGLL,,,,,024616.00,V,N*4D
$GPRMC,024617.00,V,,,,,,,171214,,,N*7B
$GPGLL,,,,,024617.00,V,N*4C
$GPRMC,024618.00,V,,,,,,,171214,,,N*74
$GPGLL,,,,,024618.00,V,N*43
$GPRMC,024619.00,V,,,,,,,171214,,,N*75
$GPGLL,,,,,024619.00,V,N*42
$GPRMC,024620.00,V,,,,,,,171214,,,N*7F
$GPGLL,,,,,024620.00,V,N*48
$GPRMC,024621.00,V,,,,,,,171214,,,N*7E
$GPGLL,,,,,024621.00,V,N*49
$GPRMC,024622.00,A,3856.40230,S,06800.75570,W,30.231,345.27,171214,,,A*56
$GPGLL,3856.40230,S,06800.75570,W,024622.00,A,A*65
$GPRMC,024623.00,A,3856.39375,S,06800.75875,W,28.226,343.56,171214,,,A*5E
$GPGLL,3856.39375,S,06800.75875,W,024623.00,A,A*62
$GPRMC,024624.00,A,3856.38571,S,06800.76136,W,27.256,344.62,171214,,,A*5F
$GPGLL,3856.38571,S,06800.76136,W,024624.00,A,A*6B
$GPRMC,024625.00,A,3856.37807,S,06800.76353,W,26.489,347.11,171214,,,A*5E
$GPGLL,3856.37807,S,06800.76353,W,024625.00,A,A*68
$GPRMC,024626.00,A,3856.37081,S,06800.76552,W,25.775,349.00,171214,,,A*51
$GPGLL,3856.37081,S,06800.76552,W,024626.00,A,A*6A
$GPRMC,024627.00,A,3856.36193,S,06800.76686,W,28.287,352.64,171214,,,A*54
$GPGLL,3856.36193,S,06800.76686,W,024627.00,A,A*62
$GPRMC,024628.00,A,3856.35320,S,06800.76734,W,28.849,356.42,171214,,,A*52
$GPGLL,3856.35320,S,06800.76734,W,024628.00,A,A*6C
$GPRMC,024629.00,A,3856.34430,S,06800.76804,W,29.690,356.99,171214,,,A*55
$GPGLL,3856.34430,S,06800.76804,W,024629.00,A,A*66
$GPRMC,024630.00,A,3856.33510,S,06800.76817,W,31.145,358.42,171214,,,A*55
$GPGLL,3856.33510,S,06800.76817,W,024630.00,A,A*68
$GPRMC,024631.00,A,3856.32602,S,06800.76822,W,32.195,358.81,171214,,,A*52
$GPGLL,3856.32602,S,06800.76822,W,024631.00,A,A*6E
$GPRMC,024632.00,A,3856.31740,S,06800.76825,W,31.126,359.87,171214,,,A*5E
$GPGLL,3856.31740,S,06800.76825,W,024632.00,A,A*6E
$GPRMC,024633.00,A,3856.30827,S,06800.76839,W,32.044,359.15,171214,,,A*50
$GPGLL,3856.30827,S,06800.76839,W,024633.00,A,A*6D
$GPRMC,024634.00,A,3856.29960,S,06800.76878,W,31.404,358.39,171214,,,A*54
$GPGLL,3856.29960,S,06800.76878,W,024634.00,A,A*65
$GPRMC,024635.00,A,3856.28976,S,06800.76911,W,34.861,358.59,171214,,,A*51
$GPGLL,3856.28976,S,06800.76911,W,024635.00,A,A*6C
$GPRMC,024636.00,A,3856.27988,S,06800.76938,W,35.041,358.66,171214,,,A*50
$GPGLL,3856.27988,S,06800.76938,W,024636.00,A,A*6A
$GPRMC,024637.00,A,3856.26994,S,06800.76956,W,35.308,358.86,171214,,,A*55
$GPGLL,3856.26994,S,06800.76956,W,024637.00,A,A*6F
$GPRMC,024638.00,A,3856.25981,S,06800.76989,W,36.044,358.82,171214,,,A*53
$GPGLL,3856.25981,S,06800.76989,W,024638.00,A,A*65
$GPRMC,024639.00,A,3856.24971,S,06800.77016,W,36.161,358.66,171214,,,A*5E
$GPGLL,3856.24971,S,06800.77016,W,024639.00,A,A*64
$GPRMC,024640.00,A,3856.23959,S,06800.77034,W,36.120,358.88,171214,,,A*58
$GPGLL,3856.23959,S,06800.77034,W,024640.00,A,A*67
$GPRMC,024641.00,A,3856.22979,S,06800.77064,W,35.161,358.48,171214,,,A*55
$GPGLL,3856.22979,S,06800.77064,W,024641.00,A,A*60
$GPRMC,024642.00,A,3856.22016,S,06800.77091,W,34.163,358.40,171214,,,A*57
$GPGLL,3856.22016,S,06800.77091,W,024642.00,A,A*69
$GPRMC,024643.00,A,3856.21015,S,06800.77088,W,35.097,359.54,171214,,,A*51
$GPGLL,3856.21015,S,06800.77088,W,024643.00,A,A*60
$GPRMC,024644.00,A,3856.20022,S,06800.77105,W,35.340,359.41,171214,,,A*5A
$GPGLL,3856.20022,S,06800.77105,W,024644.00,A,A*66
$GPRMC,024645.00,A,3856.19076,S,06800.77133,W,34.764,358.89,171214,,,A*53
$GPGLL,3856.19076,S,06800.77133,W,024645.00,A,A*69
$GPRMC,024646.00,A,3856.18113,S,06800.77161,W,34.559,358.81,171214,,,A*50
$GPGLL,3856.18113,S,06800.77161,W,024646.00,A,A*6E
$GPRMC,024647.00,A,3856.17176,S,06800.77175,W,34.098,359.08,171214,,,A*50
$GPGLL,3856.17176,S,06800.77175,W,024647.00,A,A*66
$GPRMC,024648.00,A,3856.16259,S,06800.77182,W,33.592,359.44,171214,,,A*58
$GPGLL,3856.16259,S,06800.77182,W,024648.00,A,A*6E
$GPRMC,024649.00,A,3856.15361,S,06800.77205,W,33.030,359.26,171214,,,A*55
$GPGLL,3856.15361,S,06800.77205,W,024649.00,A,A*6A
$GPRMC,024650.00,A,3856.14501,S,06800.77231,W,32.090,359.12,171214,,,A*57
$GPGLL,3856.14501,S,06800.77231,W,024650.00,A,A*64
$GPRMC,024651.00,A,3856.13636,S,06800.77256,W,31.618,358.85,171214,,,A*5D
$GPGLL,3856.13636,S,06800.77256,W,024651.00,A,A*64
$GPRMC,024652.00,A,3856.12756,S,06800.77270,W,31.566,359.04,171214,,,A*5E
$GPGLL,3856.12756,S,06800.77270,W,024652.00,A,A*65
$GPRMC,024653.00,A,3856.11899,S,06800.77280,W,31.154,359.17,171214,,,A*58
$GPGLL,3856.11899,S,06800.77280,W,024653.00,A,A*64
$GPRMC,024654.00,A,3856.11091,S,06800.77279,W,30.173,359.58,171214,,,A*56
$GPGLL,3856.11091,S,06800.77279,W,024654.00,A,A*65
$GPRMC,024655.00,A,3856.10271,S,06800.77278,W,29.771,359.68,171214,,,A*54
$GPGLL,3856.10271,S,06800.77278,W,024655.00,A,A*68
$GPRMC,024656.00,A,3856.09443,S,06800.77282,W,29.655,359.65,171214,,,A*57
$GPGLL,3856.09443,S,06800.77282,W,024656.00,A,A*61
$GPRMC,024657.00,A,3856.08620,S,06800.77284,W,29.506,359.70,171214,,,A*57
$GPGLL,3856.08620,S,06800.77284,W,024657.00,A,A*60
$GPRMC,024658.00,A,3856.07812,S,06800.77292,W,29.218,359.47,171214,,,A*53
$GPGLL,3856.07812,S,06800.77292,W,024658.00,A,A*68
$GPRMC,024659.00,A,3856.07043,S,06800.77312,W,28.520,359.06,171214,,,A*5F
$GPGLL,3856.07043,S,06800.77312,W,024659.00,A,A*6C
$GPRMC,024700.00,A,3856.06272,S,06800.77322,W,28.068,359.13,171214,,,A*5D
$GPGLL,3856.06272,S,06800.77322,W,024700.00,A,A*63
$GPRMC,024701.00,A,3856.05544,S,06800.77326,W,27.345,359.29,171214,,,A*53
$GPGLL,3856.05544,S,06800.77326,W,024701.00,A,A*67
$GPRMC,024702.00,A,3856.04816,S,06800.77339,W,26.890,359.17,171214,,,A*5A
$GPGLL,3856.04816,S,06800.77339,W,024702.00,A,A*61
$GPRMC,024703.00,A,3856.04083,S,06800.77341,W,26.662,359.57,171214,,,A*57
$GPGLL,3856.04083,S,06800.77341,W,024703.00,A,A*6B
$GPRMC,024704.00,A,3856.03350,S,06800.77330,W,26.475,0.05,171214,,,A*50
$GPGLL,3856.03350,S,06800.77330,W,024704.00,A,A*60
$GPRMC,024705.00,A,3856.02564,S,06800.77298,W,26.977,0.93,171214,,,A*52
$GPGLL,3856.02564,S,06800.77298,W,024705.00,A,A*62
$GPRMC,024706.00,A,3856.01794,S,06800.77259,W,27.239,1.62,171214,,,A*5D
$GPGLL,3856.01794,S,06800.77259,W,024706.00,A,A*62
$GPRMC,024707.00,A,3856.01047,S,06800.77224,W,27.154,1.85,171214,,,A*5E
$GPGLL,3856.01047,S,06800.77224,W,024707.00,A,A*60
$GPRMC,024708.00,A,3856.00279,S,06800.77203,W,27.295,1.41,171214,,,A*5C
$GPGLL,3856.00279,S,06800.77203,W,024708.00,A,A*64
$GPRMC,024709.00,A,3855.99545,S,06800.77208,W,27.015,0.44,171214,,,A*53
$GPGLL,3855.99545,S,06800.77208,W,024709.00,A,A*65
$GPRMC,024710.00,A,3855.98724,S,06800.77202,W,27.917,0.27,171214,,,A*5B
$GPGLL,3855.98724,S,06800.77202,W,024710.00,A,A*63
$GPRMC,024711.00,A,3855.97882,S,06800.77211,W,28.703,359.90,171214,,,A*53
$GPGLL,3855.97882,S,06800.77211,W,024711.00,A,A*6C
$GPRMC,024712.00,A,3855.97040,S,06800.77214,W,29.203,359.71,171214,,,A*58
$GPGLL,3855.97040,S,06800.77214,W,024712.00,A,A*6C
$GPRMC,024713.00,A,3855.96216,S,06800.77215,W,29.321,359.79,171214,,,A*51
$GPGLL,3855.96216,S,06800.77215,W,024713.00,A,A*6C
$GPRMC,024714.00,A,3855.95396,S,06800.77206,W,29.350,0.10,171214,,,A*58
$GPGLL,3855.95396,S,06800.77206,W,024714.00,A,A*63
$GPRMC,024715.00,A,3855.94556,S,06800.77201,W,29.594,0.26,171214,,,A*5E
$GPGLL,3855.94556,S,06800.77201,W,024715.00,A,A*6E
$GPRMC,024716.00,A,3855.93713,S,06800.77207,W,29.882,359.90,171214,,,A*57
$GPGLL,3855.93713,S,06800.77207,W,024716.00,A,A*6F
$GPRMC,024717.00,A,3855.92877,S,06800.77218,W,29.984,359.67,171214,,,A*5B
$GPGLL,3855.92877,S,06800.77218,W,024717.00,A,A*6C
$GPRMC,024718.00,A,3855.92066,S,06800.77242,W,29.730,359.18,171214,,,A*5A
$GPGLL,3855.92066,S,06800.77242,W,024718.00,A,A*64
$GPRMC,024719.00,A,3855.91278,S,06800.77272,W,29.350,358.82,171214,,,A*56
$GPGLL,3855.91278,S,06800.77272,W,024719.00,A,A*68
$GPRMC,024720.00,A,3855.90476,S,06800.77302,W,29.271,358.64,171214,,,A*59
$GPGLL,3855.90476,S,06800.77302,W,024720.00,A,A*6D
$GPRMC,024721.00,A,3855.89622,S,06800.77314,W,29.691,358.75,171214,,,A*5E
$GPGLL,3855.89622,S,06800.77314,W,024721.00,A,A*60
$GPRMC,024722.00,A,3855.88806,S,06800.77368,W,29.840,357.94,171214,,,A*5D
$GPGLL,3855.88806,S,06800.77368,W,024722.00,A,A*61
$GPRMC,024723.00,A,3855.87955,S,06800.77444,W,30.403,357.07,171214,,,A*54
$GPGLL,3855.87955,S,06800.77444,W,024723.00,A,A*61
$GPRMC,024724.00,A,3855.87101,S,06800.77525,W,30.836,356.53,171214,,,A*56
$GPGLL,3855.87101,S,06800.77525,W,024724.00,A,A*69
$GPRMC,024725.00,A,3855.86245,S,06800.77614,W,31.227,356.33,171214,,,A*59
$GPGLL,3855.86245,S,06800.77614,W,024725.00,A,A*6B
$GPRMC,024726.00,A,3855.85395,S,06800.77689,W,31.240,356.55,171214,,,A*50
$GPGLL,3855.85395,S,06800.77689,W,024726.00,A,A*63
$GPRMC,024727.00,A,3855.84534,S,06800.77754,W,31.234,357.20,171214,,,A*5C
$GPGLL,3855.84534,S,06800.77754,W,024727.00,A,A*6F
$GPRMC,024728.00,A,3855.83660,S,06800.77794,W,31.371,358.08,171214,,,A*5F
$GPGLL,3855.83660,S,06800.77794,W,024728.00,A,A*69
$GPRMC,024729.00,A,3855.82782,S,06800.77822,W,31.486,358.59,171214,,,A*5B
$GPGLL,3855.82782,S,06800.77822,W,024729.00,A,A*66
$GPRMC,024730.00,A,3855.81889,S,06800.77851,W,31.780,358.65,171214,,,A*5A
$GPGLL,3855.81889,S,06800.77851,W,024730.00,A,A*6D
$GPRMC,024731.00,A,3855.80995,S,06800.77873,W,31.553,358.57,171214,,,A*5B
$GPGLL,3855.80995,S,06800.77873,W,024731.00,A,A*61
$GPRMC,024732.00,A,3855.80076,S,06800.77858,W,31.607,359.48,171214,,,A*58
$GPGLL,3855.80076,S,06800.77858,W,024732.00,A,A*6F
$GPRMC,024733.00,A,3855.79136,S,06800.77845,W,32.128,0.02,171214,,,A*5E
$GPGLL,3855.79136,S,06800.77845,W,024733.00,A,A*61
$GPRMC,024734.00,A,3855.78238,S,06800.77848,W,31.792,359.47,171214,,,A*52
$GPGLL,3855.78238,S,06800.77848,W,024734.00,A,A*67
$GPRMC,024735.00,A,3855.77299,S,06800.77843,W,32.148,359.62,171214,,,A*59
$GPGLL,3855.77299,S,06800.77843,W,024735.00,A,A*69
$GPRMC,024736.00,A,3855.76371,S,06800.77849,W,32.311,359.46,171214,,,A*5E
$GPGLL,3855.76371,S,06800.77849,W,024736.00,A,A*66
$GPRMC,024737.00,A,3855.75451,S,06800.77859,W,32.268,359.34,171214,,,A*52
$GPGLL,3855.75451,S,06800.77859,W,024737.00,A,A*60
$GPRMC,024738.00,A,3855.74537,S,06800.77871,W,32.211,359.23,171214,,,A*5F
$GPGLL,3855.74537,S,06800.77871,W,024738.00,A,A*65
$GPRMC,024739.00,A,3855.73617,S,06800.77881,W,32.346,359.41,171214,,,A*50
$GPGLL,3855.73617,S,06800.77881,W,024739.00,A,A*6D
$GPRMC,024740.00,A,3855.72703,S,06800.77887,W,32.280,359.51,171214,,,A*57
$GPGLL,3855.72703,S,06800.77887,W,024740.00,A,A*60
$GPRMC,024741.00,A,3855.71795,S,06800.77897,W,32.225,359.41,171214,,,A*55
$GPGLL,3855.71795,S,06800.77897,W,024741.00,A,A*6C
$GPRMC,024742.00,A,3855.70865,S,06800.77904,W,32.533,359.41,171214,,,A*5C
$GPGLL,3855.70865,S,06800.77904,W,024742.00,A,A*65
$GPRMC,024743.00,A,3855.69964,S,06800.77916,W,32.257,359.26,171214,,,A*52
$GPGLL,3855.69964,S,06800.77916,W,024743.00,A,A*6F
$GPRMC,024744.00,A,3855.69061,S,06800.77928,W,32.149,359.26,171214,,,A*58
$GPGLL,3855.69061,S,06800.77928,W,024744.00,A,A*69
$GPRMC,024745.00,A,3855.68167,S,06800.77940,W,31.915,359.31,171214,,,A*55
$GPGLL,3855.68167,S,06800.77940,W,024745.00,A,A*60
$GPRMC,024746.00,A,3855.67278,S,06800.77953,W,31.718,359.28,171214,,,A*5D
$GPGLL,3855.67278,S,06800.77953,W,024746.00,A,A*63
$GPRMC,024747.00,A,3855.66376,S,06800.77954,W,31.801,359.66,171214,,,A*58
$GPGLL,3855.66376,S,06800.77954,W,024747.00,A,A*6B
$GPRMC,024748.00,A,3855.65514,S,06800.77951,W,31.324,359.95,171214,,,A*53
$GPGLL,3855.65514,S,06800.77951,W,024748.00,A,A*60
$GPRMC,024749.00,A,3855.64667,S,06800.77964,W,30.816,359.33,171214,,,A*55
$GPGLL,3855.64667,S,06800.77964,W,024749.00,A,A*61
$GPRMC,024750.00,A,3855.63818,S,06800.77978,W,30.471,359.13,171214,,,A*5E
$GPGLL,3855.63818,S,06800.77978,W,024750.00,A,A*65
$GPRMC,024751.00,A,3855.62965,S,06800.77985,W,30.383,359.33,171214,,,A*5F
$GPGLL,3855.62965,S,06800.77985,W,024751.00,A,A*6C
$GPRMC,024752.00,A,3855.62131,S,06800.77994,W,30.130,359.21,171214,,,A*5C
$GPGLL,3855.62131,S,06800.77994,W,024752.00,A,A*66
$GPRMC,024753.00,A,3855.61353,S,06800.78007,W,29.184,359.29,171214,,,A*5B
$GPGLL,3855.61353,S,06800.78007,W,024753.00,A,A*6E
$GPRMC,024754.00,A,3855.60568,S,06800.78034,W,28.634,358.80,171214,,,A*5C
$GPGLL,3855.60568,S,06800.78034,W,024754.00,A,A*66
$GPRMC,024755.00,A,3855.59785,S,06800.78065,W,27.713,357.92,171214,,,A*55
$GPGLL,3855.59785,S,06800.78065,W,024755.00,A,A*68
$GPRMC,024756.00,A,3855.58962,S,06800.78090,W,27.902,357.66,171214,,,A*5F
$GPGLL,3855.58962,S,06800.78090,W,024756.00,A,A*67
$GPRMC,024757.00,A,3855.58170,S,06800.78143,W,27.710,356.90,171214,,,A*5F
$GPGLL,3855.58170,S,06800.78143,W,024757.00,A,A*62
$GPRMC,024758.00,A,3855.57390,S,06800.78189,W,27.412,356.84,171214,,,A*51
$GPGLL,3855.57390,S,06800.78189,W,024758.00,A,A*68
$GPRMC,024759.00,A,3855.56663,S,06800.78262,W,26.618,356.15,171214,,,A*5F
$GPGLL,3855.56663,S,06800.78262,W,024759.00,A,A*67
$GPRMC,024800.00,A,3855.55986,S,06800.78365,W,25.533,355.00,171214,,,A*53
$GPGLL,3855.55986,S,06800.78365,W,024800.00,A,A*65
$GPRMC,024801.00,A,3855.55354,S,06800.78453,W,24.220,354.97,171214,,,A*5E
$GPGLL,3855.55354,S,06800.78453,W,024801.00,A,A*63
$GPRMC,024802.00,A,3855.54774,S,06800.78535,W,22.547,355.45,171214,,,A*55
$GPGLL,3855.54774,S,06800.78535,W,024802.00,A,A*66
$GPRMC,024803.00,A,3855.54228,S,06800.78619,W,21.153,355.21,171214,,,A*55
$GPGLL,3855.54228,S,06800.78619,W,024803.00,A,A*66
$GPRMC,024804.00,A,3855.53702,S,06800.78696,W,20.233,354.48,171214,,,A*55
$GPGLL,3855.53702,S,06800.78696,W,024804.00,A,A*6C
$GPRMC,024805.00,A,3855.53305,S,06800.78733,W,17.889,357.60,171214,,,A*5F
$GPGLL,3855.53305,S,06800.78733,W,024805.00,A,A*60
$GPRMC,024806.00,A,3855.52924,S,06800.78782,W,16.458,356.78,171214,,,A*57
$GPGLL,3855.52924,S,06800.78782,W,024806.00,A,A*61
$GPRMC,024807.00,A,3855.52648,S,06800.78808,W,14.274,357.90,171214,,,A*53
$GPGLL,3855.52648,S,06800.78808,W,024807.00,A,A*68
$GPRMC,024808.00,A,3855.52396,S,06800.78810,W,12.470,359.31,171214,,,A*52
$GPGLL,3855.52396,S,06800.78810,W,024808.00,A,A*68
$GPRMC,024809.00,A,3855.52140,S,06800.78790,W,11.204,0.98,171214,,,A*57
$GPGLL,3855.52140,S,06800.78790,W,024809.00,A,A*67
$GPRMC,024810.00,A,3855.51865,S,06800.78707,W,10.761,4.73,171214,,,A*5A
$GPGLL,3855.51865,S,06800.78707,W,024810.00,A,A*6C
$GPRMC,024811.00,A,3855.51530,S,06800.78615,W,11.148,7.70,171214,,,A*58
$GPGLL,3855.51530,S,06800.78615,W,024811.00,A,A*62
$GPRMC,024812.00,A,3855.51574,S,06800.78378,W,8.223,18.76,171214,,,A*5B
$GPGLL,3855.51574,S,06800.78378,W,024812.00,A,A*6F
$GPRMC,024813.00,A,3855.51418,S,06800.78186,W,7.911,26.77,171214,,,A*5B
$GPGLL,3855.51418,S,06800.78186,W,024813.00,A,A*66
$GPRMC,024814.00,A,3855.51366,S,06800.78001,W,6.923,35.01,171214,,,A*5F
$GPGLL,3855.51366,S,06800.78001,W,024814.00,A,A*61
$GPRMC,024815.00,A,3855.51281,S,06800.77782,W,6.910,42.76,171214,,,A*55
$GPGLL,3855.51281,S,06800.77782,W,024815.00,A,A*6B
$GPRMC,024816.00,A,3855.51351,S,06800.77483,W,7.011,57.18,171214,,,A*5D
$GPGLL,3855.51351,S,06800.77483,W,024816.00,A,A*66
$GPRMC,024817.00,A,3855.51626,S,06800.77161,W,7.607,84.63,171214,,,A*53
$GPGLL,3855.51626,S,06800.77161,W,024817.00,A,A*6B
$GPRMC,024818.00,A,3855.51744,S,06800.76886,W,7.837,95.39,171214,,,A*5A
$GPGLL,3855.51744,S,06800.76886,W,024818.00,A,A*60
$GPRMC,024819.00,A,3855.51974,S,06800.76675,W,7.981,110.79,171214,,,A*60
$GPGLL,3855.51974,S,06800.76675,W,024819.00,A,A*6E
$GPRMC,024820.00,A,3855.52294,S,06800.76423,W,9.452,124.97,171214,,,A*67
$GPGLL,3855.52294,S,06800.76423,W,024820.00,A,A*63
$GPRMC,024821.00,A,3855.52689,S,06800.76233,W,10.817,138.34,171214,,,A*58
$GPGLL,3855.52689,S,06800.76233,W,024821.00,A,A*6D
$GPRMC,024822.00,A,3855.53153,S,06800.76034,W,12.886,148.26,171214,,,A*51
$GPGLL,3855.53153,S,06800.76034,W,024822.00,A,A*6A
$GPRMC,024823.00,A,3855.53589,S,06800.75910,W,13.673,155.40,171214,,,A*56
$GPGLL,3855.53589,S,06800.75910,W,024823.00,A,A*64
$GPRMC,024824.00,A,3855.53989,S,06800.75782,W,13.790,159.44,171214,,,A*5C
$GPGLL,3855.53989,S,06800.75782,W,024824.00,A,A*6A
$GPRMC,024825.00,A,3855.54363,S,06800.75650,W,13.633,161.49,171214,,,A*54
$GPGLL,3855.54363,S,06800.75650,W,024825.00,A,A*6C
$GPRMC,024826.00,A,3855.54742,S,06800.75508,W,13.719,162.11,171214,,,A*59
$GPGLL,3855.54742,S,06800.75508,W,024826.00,A,A*66
$GPRMC,024827.00,A,3855.55120,S,06800.75326,W,13.986,160.84,171214,,,A*57
$GPGLL,3855.55120,S,06800.75326,W,024827.00,A,A*6E
$GPRMC,024828.00,A,3855.55487,S,06800.75121,W,14.091,158.20,171214,,,A*58
$GPGLL,3855.55487,S,06800.75121,W,024828.00,A,A*6C
$GPRMC,024829.00,A,3855.55779,S,06800.74924,W,13.128,155.74,171214,,,A*5F
$GPGLL,3855.55779,S,06800.74924,W,024829.00,A,A*63
$GPRMC,024830.00,A,3855.56114,S,06800.74717,W,13.059,153.47,171214,,,A*56
$GPGLL,3855.56114,S,06800.74717,W,024830.00,A,A*6B
$GPRMC,024831.00,A,3855.56412,S,06800.74528,W,12.349,153.32,171214,,,A*5B
$GPGLL,3855.56412,S,06800.74528,W,024831.00,A,A*67
$GPRMC,024832.00,A,3855.56730,S,06800.74361,W,12.032,155.49,171214,,,A*55
$GPGLL,3855.56730,S,06800.74361,W,024832.00,A,A*6C
$GPRMC,024833.00,A,3855.57000,S,06800.74216,W,11.158,158.40,171214,,,A*5A
$GPGLL,3855.57000,S,06800.74216,W,024833.00,A,A*69
$GPRMC,024834.00,A,3855.57231,S,06800.74075,W,10.267,158.78,171214,,,A*5F
$GPGLL,3855.57231,S,06800.74075,W,024834.00,A,A*69
$GPRMC,024835.00,A,3855.57406,S,06800.73910,W,9.388,153.87,171214,,,A*62
$GPGLL,3855.57406,S,06800.73910,W,024835.00,A,A*67
$GPRMC,024836.00,A,3855.57598,S,06800.73659,W,10.044,144.34,171214,,,A*50
$GPGLL,3855.57598,S,06800.73659,W,024836.00,A,A*60
$GPRMC,024837.00,A,3855.57713,S,06800.73377,W,9.901,135.97,171214,,,A*66
$GPGLL,3855.57713,S,06800.73377,W,024837.00,A,A*69
$GPRMC,024838.00,A,3855.57767,S,06800.73074,W,9.432,127.32,171214,,,A*6B
$GPGLL,3855.57767,S,06800.73074,W,024838.00,A,A*65
$GPRMC,024839.00,A,3855.57783,S,06800.72748,W,9.272,117.76,171214,,,A*68
$GPGLL,3855.57783,S,06800.72748,W,024839.00,A,A*67
$GPRMC,024840.00,A,3855.57795,S,06800.72394,W,9.584,108.98,171214,,,A*64
$GPGLL,3855.57795,S,06800.72394,W,024840.00,A,A*6B
$GPRMC,024841.00,A,3855.57780,S,06800.71978,W,10.544,101.28,171214,,,A*5C
$GPGLL,3855.57780,S,06800.71978,W,024841.00,A,A*65
$GPRMC,024842.00,A,3855.57796,S,06800.71574,W,10.959,97.46,171214,,,A*6E
$GPGLL,3855.57796,S,06800.71574,W,024842.00,A,A*61
$GPRMC,024843.00,A,3855.57792,S,06800.71174,W,11.131,94.96,171214,,,A*66
$GPGLL,3855.57792,S,06800.71174,W,024843.00,A,A*60
$GPRMC,024844.00,A,3855.57779,S,06800.70759,W,11.412,92.73,171214,,,A*65
$GPGLL,3855.57779,S,06800.70759,W,024844.00,A,A*6A
$GPRMC,024845.00,A,3855.57768,S,06800.70355,W,11.464,91.26,171214,,,A*6E
$GPGLL,3855.57768,S,06800.70355,W,024845.00,A,A*63
$GPRMC,024846.00,A,3855.57773,S,06800.69931,W,11.661,90.74,171214,,,A*66
$GPGLL,3855.57773,S,06800.69931,W,024846.00,A,A*6A
$GPRMC,024847.00,A,3855.57777,S,06800.69520,W,11.568,90.62,171214,,,A*62
$GPGLL,3855.57777,S,06800.69520,W,024847.00,A,A*63
$GPRMC,024848.00,A,3855.57781,S,06800.69132,W,11.307,90.50,171214,,,A*6D
$GPGLL,3855.57781,S,06800.69132,W,024848.00,A,A*62
$GPRMC,024849.00,A,3855.57794,S,06800.68717,W,11.445,90.78,171214,,,A*63
$GPGLL,3855.57794,S,06800.68717,W,024849.00,A,A*67
$GPRMC,024850.00,A,3855.57789,S,06800.68289,W,11.641,90.39,171214,,,A*66
$GPGLL,3855.57789,S,06800.68289,W,024850.00,A,A*61
$GPRMC,024851.00,A,3855.57791,S,06800.67887,W,11.428,90.19,171214,,,A*6A
$GPGLL,3855.57791,S,06800.67887,W,024851.00,A,A*62
$GPRMC,024852.00,A,3855.57776,S,06800.67505,W,11.044,89.31,171214,,,A*6B
$GPGLL,3855.57776,S,06800.67505,W,024852.00,A,A*6F
$GPRMC,024853.00,A,3855.57742,S,06800.67102,W,11.083,87.60,171214,,,A*6F
$GPGLL,3855.57742,S,06800.67102,W,024853.00,A,A*6A
$GPRMC,024854.00,A,3855.57729,S,06800.66652,W,11.616,87.05,171214,,,A*6F
$GPGLL,3855.57729,S,06800.66652,W,024854.00,A,A*63
$GPRMC,024855.00,A,3855.57740,S,06800.66207,W,11.900,87.90,171214,,,A*61
$GPGLL,3855.57740,S,06800.66207,W,024855.00,A,A*69
$GPRMC,024856.00,A,3855.57741,S,06800.65779,W,11.804,88.40,171214,,,A*6B
$GPGLL,3855.57741,S,06800.65779,W,024856.00,A,A*64
$GPRMC,024857.00,A,3855.57747,S,06800.65337,W,11.870,88.80,171214,,,A*6D
$GPGLL,3855.57747,S,06800.65337,W,024857.00,A,A*6D
$GPRMC,024858.00,A,3855.57759,S,06800.64903,W,11.921,89.32,171214,,,A*6C
$GPGLL,3855.57759,S,06800.64903,W,024858.00,A,A*61
$GPRMC,024859.00,A,3855.57789,S,06800.64451,W,12.134,90.56,171214,,,A*6F
$GPGLL,3855.57789,S,06800.64451,W,024859.00,A,A*67
$GPRMC,024900.00,A,3855.57777,S,06800.63958,W,12.643,90.13,171214,,,A*66
$GPGLL,3855.57777,S,06800.63958,W,024900.00,A,A*68
$GPRMC,024901.00,A,3855.57772,S,06800.63454,W,13.023,89.65,171214,,,A*6B
$GPGLL,3855.57772,S,06800.63454,W,024901.00,A,A*6D
$GPRMC,024902.00,A,3855.57754,S,06800.62987,W,12.900,88.79,171214,,,A*6B
$GPGLL,3855.57754,S,06800.62987,W,024902.00,A,A*68
$GPRMC,024903.00,A,3855.57765,S,06800.62453,W,13.602,89.20,171214,,,A*6D
$GPGLL,3855.57765,S,06800.62453,W,024903.00,A,A*6F
$GPRMC,024904.00,A,3855.57767,S,06800.61936,W,13.752,89.93,171214,,,A*69
$GPGLL,3855.57767,S,06800.61936,W,024904.00,A,A*67
$GPRMC,024905.00,A,3855.57764,S,06800.61443,W,13.588,90.17,171214,,,A*65
$GPGLL,3855.57764,S,06800.61443,W,024905.00,A,A*6A
$GPRMC,024906.00,A,3855.57785,S,06800.60987,W,13.113,90.95,171214,,,A*61
$GPGLL,3855.57785,S,06800.60987,W,024906.00,A,A*62
$GPRMC,024907.00,A,3855.57784,S,06800.60555,W,12.600,90.84,171214,,,A*66
$GPGLL,3855.57784,S,06800.60555,W,024907.00,A,A*61
$GPRMC,024908.00,A,3855.57851,S,06800.60115,W,12.331,93.06,171214,,,A*60
$GPGLL,3855.57851,S,06800.60115,W,024908.00,A,A*69
$GPRMC,024909.00,A,3855.57959,S,06800.59789,W,10.994,97.32,171214,,,A*65
$GPGLL,3855.57959,S,06800.59789,W,024909.00,A,A*68
$GPRMC,024910.00,A,3855.58083,S,06800.59597,W,8.846,104.14,171214,,,A*69
$GPGLL,3855.58083,S,06800.59597,W,024910.00,A,A*6C
$GPRMC,024911.00,A,3855.58208,S,06800.59505,W,6.541,113.42,171214,,,A*63
$GPGLL,3855.58208,S,06800.59505,W,024911.00,A,A*67
$GPRMC,024912.00,A,3855.58373,S,06800.59365,W,6.441,125.27,171214,,,A*6A
$GPGLL,3855.58373,S,06800.59365,W,024912.00,A,A*69
$GPRMC,024913.00,A,3855.58653,S,06800.59253,W,7.261,141.20,171214,,,A*68
$GPGLL,3855.58653,S,06800.59253,W,024913.00,A,A*6B
$GPRMC,024914.00,A,3855.58946,S,06800.59154,W,8.165,151.50,171214,,,A*6E
$GPGLL,3855.58946,S,06800.59154,W,024914.00,A,A*63
$GPRMC,024915.00,A,3855.59252,S,06800.59019,W,9.183,156.15,171214,,,A*67
$GPGLL,3855.59252,S,06800.59019,W,024915.00,A,A*65
$GPRMC,024916.00,A,3855.59557,S,06800.58932,W,9.527,160.25,171214,,,A*6B
$GPGLL,3855.59557,S,06800.58932,W,024916.00,A,A*65
$GPRMC,024917.00,A,3855.59892,S,06800.58866,W,10.140,163.97,171214,,,A*59
$GPGLL,3855.59892,S,06800.58866,W,024917.00,A,A*60
$GPRMC,024918.00,A,3855.60198,S,06800.58837,W,10.103,167.39,171214,,,A*5C
$GPGLL,3855.60198,S,06800.58837,W,024918.00,A,A*62
$GPRMC,024919.00,A,3855.60534,S,06800.58799,W,10.560,169.91,171214,,,A*59
$GPGLL,3855.60534,S,06800.58799,W,024919.00,A,A*6A
$GPRMC,024920.00,A,3855.60845,S,06800.58741,W,10.596,170.93,171214,,,A*5E
$GPGLL,3855.60845,S,06800.58741,W,024920.00,A,A*6E
$GPRMC,024921.00,A,3855.61112,S,06800.58594,W,10.519,167.84,171214,,,A*58
$GPGLL,3855.61112,S,06800.58594,W,024921.00,A,A*6F
$GPRMC,024922.00,A,3855.61272,S,06800.58317,W,9.635,157.78,171214,,,A*66
$GPGLL,3855.61272,S,06800.58317,W,024922.00,A,A*64
$GPRMC,024923.00,A,3855.61406,S,06800.58054,W,9.193,147.47,171214,,,A*60
$GPGLL,3855.61406,S,06800.58054,W,024923.00,A,A*64
$GPRMC,024924.00,A,3855.61520,S,06800.57760,W,9.064,137.13,171214,,,A*62
$GPGLL,3855.61520,S,06800.57760,W,024924.00,A,A*69
$GPRMC,024925.00,A,3855.61629,S,06800.57488,W,8.752,129.46,171214,,,A*60
$GPGLL,3855.61629,S,06800.57488,W,024925.00,A,A*67
$GPRMC,024926.00,A,3855.61653,S,06800.57186,W,8.610,119.71,171214,,,A*65
$GPGLL,3855.61653,S,06800.57186,W,024926.00,A,A*62
$GPRMC,024927.00,A,3855.61687,S,06800.56844,W,9.035,112.13,171214,,,A*64
$GPGLL,3855.61687,S,06800.56844,W,024927.00,A,A*6C
$GPRMC,024928.00,A,3855.61729,S,06800.56507,W,9.246,107.21,171214,,,A*67
$GPGLL,3855.61729,S,06800.56507,W,024928.00,A,A*6C
$GPRMC,024929.00,A,3855.61739,S,06800.56169,W,9.379,102.74,171214,,,A*63
$GPGLL,3855.61739,S,06800.56169,W,024929.00,A,A*60
$GPRMC,024930.00,A,3855.61760,S,06800.55797,W,9.850,99.54,171214,,,A*52
$GPGLL,3855.61760,S,06800.55797,W,024930.00,A,A*60
$GPRMC,024931.00,A,3855.61761,S,06800.55452,W,9.828,96.69,171214,,,A*56
$GPGLL,3855.61761,S,06800.55452,W,024931.00,A,A*6A
$GPRMC,024932.00,A,3855.61723,S,06800.55142,W,9.466,93.04,171214,,,A*5F
$GPGLL,3855.61723,S,06800.55142,W,024932.00,A,A*6B
$GPRMC,024933.00,A,3855.61690,S,06800.54722,W,10.381,89.53,171214,,,A*69
$GPGLL,3855.61690,S,06800.54722,W,024933.00,A,A*62
$GPRMC,024934.00,A,3855.61711,S,06800.54423,W,9.814,89.20,171214,,,A*5F
$GPGLL,3855.61711,S,06800.54423,W,024934.00,A,A*6F
$GPRMC,024935.00,A,3855.61705,S,06800.53992,W,10.763,88.80,171214,,,A*67
$GPGLL,3855.61705,S,06800.53992,W,024935.00,A,A*6B
$GPRMC,024936.00,A,3855.61686,S,06800.53632,W,10.655,88.26,171214,,,A*63
$GPGLL,3855.61686,S,06800.53632,W,024936.00,A,A*67
$GPRMC,024937.00,A,3855.61629,S,06800.53269,W,10.579,86.44,171214,,,A*6A
$GPGLL,3855.61629,S,06800.53269,W,024937.00,A,A*69
$GPRMC,024938.00,A,3855.61648,S,06800.52965,W,9.893,86.86,171214,,,A*5B
$GPGLL,3855.61648,S,06800.52965,W,024938.00,A,A*67
$GPRMC,024939.00,A,3855.61663,S,06800.52602,W,10.008,87.97,171214,,,A*6E
$GPGLL,3855.61663,S,06800.52602,W,024939.00,A,A*61
$GPRMC,024940.00,A,3855.61693,S,06800.52172,W,10.689,89.54,171214,,,A*61
$GPGLL,3855.61693,S,06800.52172,W,024940.00,A,A*60
$GPRMC,024941.00,A,3855.61698,S,06800.51847,W,9.910,89.96,171214,,,A*5E
$GPGLL,3855.61698,S,06800.51847,W,024941.00,A,A*66
$GPRMC,024942.00,A,3855.61721,S,06800.51495,W,9.758,90.74,171214,,,A*5B
$GPGLL,3855.61721,S,06800.51495,W,024942.00,A,A*65
$GPRMC,024943.00,A,3855.61741,S,06800.51116,W,9.962,91.76,171214,,,A*56
$GPGLL,3855.61741,S,06800.51116,W,024943.00,A,A*6C
$GPRMC,024944.00,A,3855.61760,S,06800.50821,W,9.133,92.59,171214,,,A*5C
$GPGLL,3855.61760,S,06800.50821,W,024944.00,A,A*64
$GPRMC,024945.00,A,3855.61841,S,06800.50532,W,8.605,95.25,171214,,,A*51
$GPGLL,3855.61841,S,06800.50532,W,024945.00,A,A*66
$GPRMC,024946.00,A,3855.61887,S,06800.50283,W,7.827,97.16,171214,,,A*56
$GPGLL,3855.61887,S,06800.50283,W,024946.00,A,A*62
$GPRMC,024947.00,A,3855.61908,S,06800.50047,W,7.171,97.50,171214,,,A*53
$GPGLL,3855.61908,S,06800.50047,W,024947.00,A,A*6F
$GPRMC,024948.00,A,3855.61865,S,06800.49782,W,7.056,93.69,171214,,,A*5A
$GPGLL,3855.61865,S,06800.49782,W,024948.00,A,A*6C
$GPRMC,024949.00,A,3855.61784,S,06800.49543,W,6.871,86.62,171214,,,A*57
$GPGLL,3855.61784,S,06800.49543,W,024949.00,A,A*62
$GPRMC,024950.00,A,3855.61576,S,06800.49369,W,6.774,67.37,171214,,,A*5B
$GPGLL,3855.61576,S,06800.49369,W,024950.00,A,A*6B
$GPRMC,024951.00,A,3855.61387,S,06800.49191,W,7.296,52.25,171214,,,A*5A
$GPGLL,3855.61387,S,06800.49191,W,024951.00,A,A*67
$GPRMC,024952.00,A,3855.61209,S,06800.49003,W,7.645,44.42,171214,,,A*58
$GPGLL,3855.61209,S,06800.49003,W,024952.00,A,A*69
$GPRMC,024953.00,A,3855.60980,S,06800.48909,W,8.238,32.91,171214,,,A*5E
$GPGLL,3855.60980,S,06800.48909,W,024953.00,A,A*61
$GPRMC,024954.00,A,3855.60751,S,06800.48905,W,8.446,20.47,171214,,,A*50
$GPGLL,3855.60751,S,06800.48905,W,024954.00,A,A*68
$GPRMC,024955.00,A,3855.60481,S,06800.48874,W,9.349,10.18,171214,,,A*58
$GPGLL,3855.60481,S,06800.48874,W,024955.00,A,A*60
$GPRMC,024956.00,A,3855.60164,S,06800.48848,W,10.295,4.49,171214,,,A*53
$GPGLL,3855.60164,S,06800.48848,W,024956.00,A,A*62
$GPRMC,024957.00,A,3855.59840,S,06800.48821,W,10.872,1.71,171214,,,A*55
$GPGLL,3855.59840,S,06800.48821,W,024957.00,A,A*69
$GPRMC,024958.00,A,3855.59527,S,06800.48786,W,10.898,1.05,171214,,,A*53
$GPGLL,3855.59527,S,06800.48786,W,024958.00,A,A*68
$GPRMC,024959.00,A,3855.59268,S,06800.48779,W,10.235,0.09,171214,,,A*5E
$GPGLL,3855.59268,S,06800.48779,W,024959.00,A,A*65
$GPRMC,025000.00,A,3855.59022,S,06800.48784,W,9.766,358.74,171214,,,A*6B
$GPGLL,3855.59022,S,06800.48784,W,025000.00,A,A*6F
$GPRMC,025001.00,A,3855.58764,S,06800.48750,W,9.558,359.10,171214,,,A*6B
$GPGLL,3855.58764,S,06800.48750,W,025001.00,A,A*63
$GPRMC,025002.00,A,3855.58546,S,06800.48725,W,8.756,0.04,171214,,,A*6F
$GPGLL,3855.58546,S,06800.48725,W,025002.00,A,A*60
$GPRMC,025003.00,A,3855.58347,S,06800.48717,W,7.995,0.56,171214,,,A*61
$GPGLL,3855.58347,S,06800.48717,W,025003.00,A,A*67
$GPRMC,025004.00,A,3855.58208,S,06800.48633,W,6.692,5.22,171214,,,A*64
$GPGLL,3855.58208,S,06800.48633,W,025004.00,A,A*6D
$GPRMC,025005.00,A,3855.58119,S,06800.48506,W,5.587,14.09,171214,,,A*5E
$GPGLL,3855.58119,S,06800.48506,W,025005.00,A,A*6A
$GPRMC,025006.00,A,3855.58039,S,06800.48352,W,5.110,24.61,171214,,,A*5E
$GPGLL,3855.58039,S,06800.48352,W,025006.00,A,A*6D
$GPRMC,025007.00,A,3855.58012,S,06800.48197,W,4.582,36.65,171214,,,A*54
$GPGLL,3855.58012,S,06800.48197,W,025007.00,A,A*6E
$GPRMC,025008.00,A,3855.58004,S,06800.48095,W,3.705,45.24,171214,,,A*54
$GPGLL,3855.58004,S,06800.48095,W,025008.00,A,A*65
$GPRMC,025009.00,A,3855.57965,S,06800.47920,W,4.015,57.54,171214,,,A*59
$GPGLL,3855.57965,S,06800.47920,W,025009.00,A,A*6D
$GPRMC,025010.00,A,3855.57846,S,06800.47692,W,5.240,57.59,171214,,,A*59
$GPGLL,3855.57846,S,06800.47692,W,025010.00,A,A*63
$GPRMC,025011.00,A,3855.57640,S,06800.47483,W,6.698,47.47,171214,,,A*5E
$GPGLL,3855.57640,S,06800.47483,W,025011.00,A,A*68
$GPRMC,025012.00,A,3855.57447,S,06800.47336,W,7.042,40.69,171214,,,A*5A
$GPGLL,3855.57447,S,06800.47336,W,025012.00,A,A*67
$GPRMC,025013.00,A,3855.57213,S,06800.47241,W,7.720,29.92,171214,,,A*55
$GPGLL,3855.57213,S,06800.47241,W,025013.00,A,A*60
$GPRMC,025014.00,A,3855.56947,S,06800.47194,W,8.508,19.50,171214,,,A*58
$GPGLL,3855.56947,S,06800.47194,W,025014.00,A,A*67
$GPRMC,025015.00,A,3855.56670,S,06800.47133,W,9.106,13.69,171214,,,A*54
$GPGLL,3855.56670,S,06800.47133,W,025015.00,A,A*60
$GPRMC,025016.00,A,3855.56436,S,06800.47086,W,8.817,10.96,171214,,,A*53
$GPGLL,3855.56436,S,06800.47086,W,025016.00,A,A*6C
$GPRMC,025017.00,A,3855.56218,S,06800.47039,W,8.401,9.68,171214,,,A*6E
$GPGLL,3855.56218,S,06800.47039,W,025017.00,A,A*63
$GPRMC,025018.00,A,3855.56044,S,06800.46889,W,7.690,14.08,171214,,,A*57
$GPGLL,3855.56044,S,06800.46889,W,025018.00,A,A*65
$GPRMC,025019.00,A,3855.55938,S,06800.46559,W,7.590,32.76,171214,,,A*59
$GPGLL,3855.55938,S,06800.46559,W,025019.00,A,A*65
$GPRMC,025020.00,A,3855.55867,S,06800.46255,W,7.702,46.82,171214,,,A*52
$GPGLL,3855.55867,S,06800.46255,W,025020.00,A,A*6F
$GPRMC,025021.00,A,3855.55821,S,06800.45877,W,8.666,62.23,171214,,,A*59
$GPGLL,3855.55821,S,06800.45877,W,025021.00,A,A*65
$GPRMC,025022.00,A,3855.55799,S,06800.45422,W,10.209,75.38,171214,,,A*62
$GPGLL,3855.55799,S,06800.45422,W,025022.00,A,A*66
$GPRMC,025023.00,A,3855.55775,S,06800.44883,W,12.136,83.21,171214,,,A*6B
$GPGLL,3855.55775,S,06800.44883,W,025023.00,A,A*63
$GPRMC,025024.00,A,3855.55758,S,06800.44314,W,13.624,86.98,171214,,,A*64
$GPGLL,3855.55758,S,06800.44314,W,025024.00,A,A*6E
$GPRMC,025025.00,A,3855.55744,S,06800.43731,W,14.690,88.65,171214,,,A*68
$GPGLL,3855.55744,S,06800.43731,W,025025.00,A,A*66
$GPRMC,025026.00,A,3855.55741,S,06800.43156,W,15.320,89.54,171214,,,A*65
$GPGLL,3855.55741,S,06800.43156,W,025026.00,A,A*67
$GPRMC,025027.00,A,3855.55731,S,06800.42549,W,16.042,89.64,171214,,,A*6F
$GPGLL,3855.55731,S,06800.42549,W,025027.00,A,A*6A
$GPRMC,025028.00,A,3855.55726,S,06800.41900,W,17.035,89.58,171214,,,A*6A
$GPGLL,3855.55726,S,06800.41900,W,025028.00,A,A*61
$GPRMC,025029.00,A,3855.55738,S,06800.41234,W,17.713,90.19,171214,,,A*66
$GPGLL,3855.55738,S,06800.41234,W,025029.00,A,A*63
$GPRMC,025030.00,A,3855.55748,S,06800.40651,W,16.942,90.92,171214,,,A*67
$GPGLL,3855.55748,S,06800.40651,W,025030.00,A,A*6A
$GPRMC,025031.00,A,3855.55749,S,06800.40061,W,16.719,90.59,171214,,,A*65
$GPGLL,3855.55749,S,06800.40061,W,025031.00,A,A*6F
$GPRMC,025032.00,A,3855.55745,S,06800.39445,W,16.965,89.88,171214,,,A*67
$GPGLL,3855.55745,S,06800.39445,W,025032.00,A,A*6C
$GPRMC,025033.00,A,3855.55745,S,06800.38828,W,17.132,89.60,171214,,,A*6D
$GPGLL,3855.55745,S,06800.38828,W,025033.00,A,A*6B
$GPRMC,025034.00,A,3855.55749,S,06800.38220,W,17.030,89.62,171214,,,A*65
$GPGLL,3855.55749,S,06800.38220,W,025034.00,A,A*62
$GPRMC,025035.00,A,3855.55756,S,06800.37655,W,16.378,90.09,171214,,,A*68
$GPGLL,3855.55756,S,06800.37655,W,025035.00,A,A*64
$GPRMC,025036.00,A,3855.55807,S,06800.37233,W,14.356,92.01,171214,,,A*60
$GPGLL,3855.55807,S,06800.37233,W,025036.00,A,A*68
$GPRMC,025037.00,A,3855.55850,S,06800.36733,W,14.250,93.32,171214,,,A*61
$GPGLL,3855.55850,S,06800.36733,W,025037.00,A,A*6F
$GPRMC,025038.00,A,3855.55865,S,06800.36346,W,12.850,93.53,171214,,,A*65
$GPGLL,3855.55865,S,06800.36346,W,025038.00,A,A*60
$GPRMC,025039.00,A,3855.55862,S,06800.35930,W,12.271,92.81,171214,,,A*6C
$GPGLL,3855.55862,S,06800.35930,W,025039.00,A,A*6E
$GPRMC,025040.00,A,3855.55860,S,06800.35419,W,13.101,91.45,171214,,,A*68
$GPGLL,3855.55860,S,06800.35419,W,025040.00,A,A*64
$GPRMC,025041.00,A,3855.55887,S,06800.34831,W,14.502,91.30,171214,,,A*65
$GPGLL,3855.55887,S,06800.34831,W,025041.00,A,A*6B
$GPRMC,025042.00,A,3855.55878,S,06800.34199,W,15.901,89.71,171214,,,A*6F
$GPGLL,3855.55878,S,06800.34199,W,025042.00,A,A*63
$GPRMC,025043.00,A,3855.55875,S,06800.33570,W,16.491,89.84,171214,,,A*6A
$GPGLL,3855.55875,S,06800.33570,W,025043.00,A,A*6B
$GPRMC,025044.00,A,3855.55869,S,06800.32946,W,16.710,89.85,171214,,,A*63
$GPGLL,3855.55869,S,06800.32946,W,025044.00,A,A*69
$GPRMC,025045.00,A,3855.55856,S,06800.32317,W,17.019,89.46,171214,,,A*60
$GPGLL,3855.55856,S,06800.32317,W,025045.00,A,A*6A
$GPRMC,025046.00,A,3855.55841,S,06800.31728,W,16.765,89.18,171214,,,A*68
$GPGLL,3855.55841,S,06800.31728,W,025046.00,A,A*64
$GPRMC,025047.00,A,3855.55851,S,06800.31162,W,16.139,90.06,171214,,,A*68
$GPGLL,3855.55851,S,06800.31162,W,025047.00,A,A*6C
$GPRMC,025048.00,A,3855.55865,S,06800.30816,W,13.030,91.10,171214,,,A*60
$GPGLL,3855.55865,S,06800.30816,W,025048.00,A,A*6F
$GPRMC,025049.00,A,3855.55881,S,06800.30602,W,9.665,92.66,171214,,,A*5F
$GPGLL,3855.55881,S,06800.30602,W,025049.00,A,A*6F
$GPRMC,025050.00,A,3855.55836,S,06800.30314,W,8.840,90.96,171214,,,A*5C
$GPGLL,3855.55836,S,06800.30314,W,025050.00,A,A*69
$GPRMC,025051.00,A,3855.55783,S,06800.29989,W,8.858,87.79,171214,,,A*54
$GPGLL,3855.55783,S,06800.29989,W,025051.00,A,A*6F
$GPRMC,025052.00,A,3855.55783,S,06800.29686,W,8.411,87.16,171214,,,A*5F
$GPGLL,3855.55783,S,06800.29686,W,025052.00,A,A*6C
$GPRMC,025053.00,A,3855.55786,S,06800.29374,W,8.347,87.71,171214,,,A*56
$GPGLL,3855.55786,S,06800.29374,W,025053.00,A,A*60
$GPRMC,025054.00,A,3855.55791,S,06800.28953,W,9.664,88.74,171214,,,A*56
$GPGLL,3855.55791,S,06800.28953,W,025054.00,A,A*6F
$GPRMC,025055.00,A,3855.55750,S,06800.28423,W,11.820,87.59,171214,,,A*67
$GPGLL,3855.55750,S,06800.28423,W,025055.00,A,A*69
$GPRMC,025056.00,A,3855.55738,S,06800.27934,W,12.533,87.66,171214,,,A*6E
$GPGLL,3855.55738,S,06800.27934,W,025056.00,A,A*60
$GPRMC,025057.00,A,3855.55748,S,06800.27436,W,13.059,88.77,171214,,,A*60
$GPGLL,3855.55748,S,06800.27436,W,025057.00,A,A*69
$GPRMC,025058.00,A,3855.55743,S,06800.26876,W,14.134,89.20,171214,,,A*63
$GPGLL,3855.55743,S,06800.26876,W,025058.00,A,A*64
$GPRMC,025059.00,A,3855.55739,S,06800.26347,W,14.398,89.39,171214,,,A*6A
$GPGLL,3855.55739,S,06800.26347,W,025059.00,A,A*61
$GPRMC,025100.00,A,3855.55705,S,06800.25822,W,14.367,88.53,171214,,,A*6E
$GPGLL,3855.55705,S,06800.25822,W,025100.00,A,A*68
$GPRMC,025101.00,A,3855.55635,S,06800.25331,W,13.864,86.39,171214,,,A*69
$GPGLL,3855.55635,S,06800.25331,W,025101.00,A,A*62
$GPRMC,025102.00,A,3855.55429,S,06800.24999,W,12.246,78.15,171214,,,A*68
$GPGLL,3855.55429,S,06800.24999,W,025102.00,A,A*67
$GPRMC,025103.00,A,3855.55159,S,06800.24666,W,12.114,65.61,171214,,,A*6F
$GPGLL,3855.55159,S,06800.24666,W,025103.00,A,A*6B
$GPRMC,025104.00,A,3855.54838,S,06800.24436,W,12.109,50.03,171214,,,A*6E
$GPGLL,3855.54838,S,06800.24436,W,025104.00,A,A*64
$GPRMC,025105.00,A,3855.54605,S,06800.24257,W,11.252,42.14,171214,,,A*65
$GPGLL,3855.54605,S,06800.24257,W,025105.00,A,A*64
$GPRMC,025106.00,A,3855.54368,S,06800.24131,W,10.477,35.63,171214,,,A*6B
$GPGLL,3855.54368,S,06800.24131,W,025106.00,A,A*6A
$GPRMC,025107.00,A,3855.54127,S,06800.24088,W,9.836,27.46,171214,,,A*55
$GPGLL,3855.54127,S,06800.24088,W,025107.00,A,A*61
$GPRMC,025108.00,A,3855.53854,S,06800.24094,W,9.878,17.66,171214,,,A*56
$GPGLL,3855.53854,S,06800.24094,W,025108.00,A,A*69
$GPRMC,025109.00,A,3855.53547,S,06800.24112,W,10.383,9.18,171214,,,A*56
$GPGLL,3855.53547,S,06800.24112,W,025109.00,A,A*68
$GPRMC,025110.00,A,3855.53218,S,06800.24114,W,10.973,3.71,171214,,,A*55
$GPGLL,3855.53218,S,06800.24114,W,025110.00,A,A*6B
$GPRMC,025111.00,A,3855.52884,S,06800.24136,W,11.546,359.76,171214,,,A*5A
$GPGLL,3855.52884,S,06800.24136,W,025111.00,A,A*64
$GPRMC,025112.00,A,3855.52536,S,06800.24159,W,11.974,358.01,171214,,,A*58
$GPGLL,3855.52536,S,06800.24159,W,025112.00,A,A*6A
$GPRMC,025113.00,A,3855.52163,S,06800.24167,W,12.608,357.60,171214,,,A*5F
$GPGLL,3855.52163,S,06800.24167,W,025113.00,A,A*62
$GPRMC,025114.00,A,3855.51759,S,06800.24170,W,13.351,358.03,171214,,,A*50
$GPGLL,3855.51759,S,06800.24170,W,025114.00,A,A*6F
$GPRMC,025115.00,A,3855.51357,S,06800.24179,W,13.705,358.29,171214,,,A*5F
$GPGLL,3855.51357,S,06800.24179,W,025115.00,A,A*6D
$GPRMC,025116.00,A,3855.50959,S,06800.24206,W,13.928,357.93,171214,,,A*5D
$GPGLL,3855.50959,S,06800.24206,W,025116.00,A,A*60
$GPRMC,025117.00,A,3855.50568,S,06800.24230,W,13.983,357.63,171214,,,A*59
$GPGLL,3855.50568,S,06800.24230,W,025117.00,A,A*6A
$GPRMC,025118.00,A,3855.50156,S,06800.24267,W,14.304,357.23,171214,,,A*5B
$GPGLL,3855.50156,S,06800.24267,W,025118.00,A,A*6E
$GPRMC,025119.00,A,3855.49746,S,06800.24315,W,14.454,356.64,171214,,,A*51
$GPGLL,3855.49746,S,06800.24315,W,025119.00,A,A*64
$GPRMC,025120.00,A,3855.49336,S,06800.24340,W,14.548,357.12,171214,,,A*54
$GPGLL,3855.49336,S,06800.24340,W,025120.00,A,A*6D
$GPRMC,025121.00,A,3855.48954,S,06800.24336,W,14.081,358.59,171214,,,A*5B
$GPGLL,3855.48954,S,06800.24336,W,025121.00,A,A*62
$GPRMC,025122.00,A,3855.48593,S,06800.24312,W,13.443,0.59,171214,,,A*5A
$GPGLL,3855.48593,S,06800.24312,W,025122.00,A,A*60
$GPRMC,025123.00,A,3855.48209,S,06800.24264,W,13.524,2.63,171214,,,A*54
$GPGLL,3855.48209,S,06800.24264,W,025123.00,A,A*65
$GPRMC,025124.00,A,3855.47808,S,06800.24224,W,13.970,3.30,171214,,,A*59
$GPGLL,3855.47808,S,06800.24224,W,025124.00,A,A*62
$GPRMC,025125.00,A,3855.47415,S,06800.24204,W,14.124,2.64,171214,,,A*54
$GPGLL,3855.47415,S,06800.24204,W,025125.00,A,A*61
$GPRMC,025126.00,A,3855.47020,S,06800.24198,W,14.170,1.74,171214,,,A*50
$GPGLL,3855.47020,S,06800.24198,W,025126.00,A,A*66
$GPRMC,025127.00,A,3855.46620,S,06800.24217,W,14.176,0.17,171214,,,A*50
$GPGLL,3855.46620,S,06800.24217,W,025127.00,A,A*64
$GPRMC,025128.00,A,3855.46199,S,06800.24213,W,14.495,359.92,171214,,,A*54
$GPGLL,3855.46199,S,06800.24213,W,025128.00,A,A*6A
$GPRMC,025129.00,A,3855.45786,S,06800.24224,W,14.531,359.62,171214,,,A*5A
$GPGLL,3855.45786,S,06800.24224,W,025129.00,A,A*64
$GPRMC,025130.00,A,3855.45392,S,06800.24245,W,14.300,359.12,171214,,,A*57
$GPGLL,3855.45392,S,06800.24245,W,025130.00,A,A*6A
$GPRMC,025131.00,A,3855.44980,S,06800.24252,W,14.419,359.11,171214,,,A*54
$GPGLL,3855.44980,S,06800.24252,W,025131.00,A,A*65
$GPRMC,025132.00,A,3855.44545,S,06800.24243,W,14.825,359.63,171214,,,A*54
$GPGLL,3855.44545,S,06800.24243,W,025132.00,A,A*63
$GPRMC,025133.00,A,3855.44111,S,06800.24245,W,15.042,359.62,171214,,,A*5F
$GPGLL,3855.44111,S,06800.24245,W,025133.00,A,A*61
$GPRMC,025134.00,A,3855.43694,S,06800.24246,W,14.922,359.62,171214,,,A*58
$GPGLL,3855.43694,S,06800.24246,W,025134.00,A,A*68
$GPRMC,025135.00,A,3855.43291,S,06800.24252,W,14.698,359.59,171214,,,A*5B
$GPGLL,3855.43291,S,06800.24252,W,025135.00,A,A*6D
$GPRMC,025136.00,A,3855.42894,S,06800.24247,W,14.426,359.89,171214,,,A*58
$GPGLL,3855.42894,S,06800.24247,W,025136.00,A,A*64
$GPRMC,025137.00,A,3855.42520,S,06800.24284,W,13.931,358.53,171214,,,A*5E
$GPGLL,3855.42520,S,06800.24284,W,025137.00,A,A*68
$GPRMC,025138.00,A,3855.42132,S,06800.24312,W,13.937,357.90,171214,,,A*5E
$GPGLL,3855.42132,S,06800.24312,W,025138.00,A,A*6E
$GPRMC,025139.00,A,3855.41746,S,06800.24331,W,13.898,358.03,171214,,,A*59
$GPGLL,3855.41746,S,06800.24331,W,025139.00,A,A*68
$GPRMC,025140.00,A,3855.41390,S,06800.24357,W,13.405,358.05,171214,,,A*56
$GPGLL,3855.41390,S,06800.24357,W,025140.00,A,A*69
$GPRMC,025141.00,A,3855.41034,S,06800.24392,W,13.143,357.50,171214,,,A*5B
$GPGLL,3855.41034,S,06800.24392,W,025141.00,A,A*6C
